id,name,buss_status,loc_id,address,phone,op_hours,category_id,rating,rating_total,newest_review,longitude,latitude,map_url,website,place_id,update_time
hp0001,北大奇緣動物醫院,OPERATIONAL,NTP009,237台灣新北市三峽區民生街2-2號,0286726119,67.66666666666669,1,4.5,266.0,2025-02-02,121.3763989,24.9370374,https://maps.google.com/?cid=8724661258929095771,https://www.facebook.com/ntpuqiyuan,ChIJLzK-FVUZaDQRW8QUlDA5FHk,
hp0002,淯生動物醫院,OPERATIONAL,NTP009,237台灣新北市三峽區復興路36之1號,0226739191,48.0,1,4.1,67.0,2024-11-30,121.3741657,24.9365222,https://maps.google.com/?cid=18267253260256283545,,ChIJOw5cp_MbaDQRmQusXw5Sgv0,
hp0003,伯特利動物醫院,OPERATIONAL,NTP009,237台灣新北市三峽區學成路323號1樓,0286723030,54.5,1,4.4,164.0,2025-06-15,121.3771077,24.9446483,https://maps.google.com/?cid=3443073608853743902,https://www.facebook.com/bethelvh/,ChIJV7AlIXUcaDQRHuk_fzRByC8,
hp0004,濰邇動物醫院,OPERATIONAL,NTP009,237台灣新北市三峽區長泰街94號,0286719996,60.0,1,4.6,158.0,2025-03-03,121.3761414,24.9333436,https://maps.google.com/?cid=839484420077207698,https://www.facebook.com/%E6%BF%B0%E9%82%87%E5%8B%95%E7%89%A9%E9%86%AB%E9%99%A2-101989275790516,ChIJsU-Mc6EbaDQRkkAt3aFypgs,
hp0005,小野菊動物醫院,OPERATIONAL,NTP009,237台灣新北市三峽區學府路32號,0226732730,51.0,1,4.4,170.0,2023-07-16,121.3726101,24.9479399,https://maps.google.com/?cid=13001389998093916504,https://www.facebook.com/%E5%B0%8F%E9%87%8E%E8%8F%8A%E5%8B%95%E7%89%A9%E9%86%AB%E9%99%A2-1606540512942892/,ChIJv8fO6QscaDQRWFm0plE3brQ,
hp0006,三峽奇緣動物醫院,OPERATIONAL,NTP009,237台灣新北市三峽區中園街126-23號,0226716119,59.00000000000001,1,4.2,188.0,2025-05-19,121.3669461,24.9212299,https://maps.google.com/?cid=4220188702769060002,,ChIJwaz9JsMbaDQRopiqAUQfkTo,
hp0007,新北市三芝區橫山國民小學,OPERATIONAL,NTP021,25246台灣新北市三芝區橫山里86號,0226362473,0.0,1,0.0,0.0,,121.5299089,25.2586728,https://maps.google.com/?cid=519458639288193573,http://www.hses.ntpc.edu.tw/,ChIJ6aI9vqW2QjQRJdJHVuF8NQc,
hp0008,德欣(中西醫)動物醫院,OPERATIONAL,NTP002,241台灣新北市三重區信義街4號1 樓,0229738657,65.0,1,4.7,182.0,2025-08-17,121.4992304,25.0648534,https://maps.google.com/?cid=6026518761014467739,https://www.facebook.com/DeXinVeterinaryClinic/,ChIJ27InWPWpQjQRm5x-HuJ-olM,
hp0009,毛孩子動物醫院,OPERATIONAL,NTP002,241台灣新北市三重區福德北路71號,0229774887,73.0,1,4.6,565.0,2025-01-11,121.5020615,25.0657453,https://maps.google.com/?cid=816465394470796250,,ChIJ2cJZMCOpQjQR2rvUUPOqVAs,
hp0010,自強動物醫院,OPERATIONAL,NTP002,241台灣新北市三重區自強路四段79號,0289858011,66.0,1,4.4,41.0,2024-07-10,121.49095,25.079009,https://maps.google.com/?cid=9984384667343024344,,ChIJ3-EmJNaoQjQR2HDWlfSoj4o,
hp0011,獴獴加非犬貓專科醫院,OPERATIONAL,NTP002,241台灣新北市三重區重新路四段20號1樓,0229792232,59.5,1,4.4,1553.0,2025-08-08,121.4885332,25.0574948,https://maps.google.com/?cid=3589961534102948365,https://www.facebook.com/profile.php?id=100044315775296,ChIJ525cVeKoQjQRDcqFrf4a0jE,
hp0012,嘉興動物醫院,OPERATIONAL,NTP002,241台灣新北市三重區忠孝路一段24號,0229860239,9.5,1,4.7,130.0,2025-09-27,121.4917748,25.0716757,https://maps.google.com/?cid=18051909263785439800,,ChIJ57MZZCepQjQROLKDEdVDhfo,
hp0013,集賢愛生動物醫院,OPERATIONAL,NTP002,241台灣新北市三重區集賢路42號,0282875849,67.0,1,4.6,378.0,2025-08-16,121.4936209,25.0880366,https://maps.google.com/?cid=508411270563698019,https://www.facebook.com/pages/%E4%B8%89%E9%87%8D%E9%9B%86%E8%B3%A2%E6%84%9B%E7%94%9F%E5%8B%95%E7%89%A9%E9%86%AB%E9%99%A2/446547578746005,ChIJ6V0r-h6vQjQRYxXBXVs9Dgc,
hp0014,旭生動物醫院,OPERATIONAL,NTP002,241台灣新北市三重區元信二街170號1樓,0289881701,52.0,1,4.8,57.0,2025-10-04,121.4962716,25.0794084,https://maps.google.com/?cid=14044295657577013468,https://www.facebook.com/profile.php?id=61561946237138&locale=zh_TW,ChIJ6wDkG02pQjQR3GBwnn1c58I,
hp0015,翰林獸醫院,OPERATIONAL,NTP002,241台灣新北市三重區三民街130號1樓,0229890089,66.0,1,4.3,56.0,2025-06-06,121.4830381,25.0649063,https://maps.google.com/?cid=9228958422777519059,,ChIJGQgQCeeoQjQR09uA1MnYE4A,
hp0016,重安動物醫院,OPERATIONAL,NTP002,"號 No, No. 20三和路三段三重區新北市台灣 241",0229899503,63.5,1,4.6,133.0,2025-06-21,121.4967461,25.0702634,https://maps.google.com/?cid=14009651695192590805,,ChIJIXvamCapQjQR1Unnjv1HbMI,
hp0017,茂生動物醫院,OPERATIONAL,NTP002,241台灣新北市三重區重新路一段64號,0229757666,49.5,1,4.6,122.0,2025-07-27,121.5021458,25.0635571,https://maps.google.com/?cid=15884681997477329095,https://pse.is/496w8v,ChIJQ3PIySKpQjQRx7ittR26cdw,
hp0018,廣福動物醫院,OPERATIONAL,NTP002,241台灣新北市三重區自強路一段197號,0289836095,36.5,1,4.5,109.0,2022-07-10,121.491786,25.068478,https://maps.google.com/?cid=9641005368412891982,https://www.facebook.com/GreatFortuneAH/,ChIJS_jhmCCpQjQRTmviZU27y4U,
hp0019,台大頑皮動物醫院,OPERATIONAL,NTP002,241台灣新北市三重區三賢街197號,0228573578,58.5,1,4.4,646.0,2025-04-23,121.4860144,25.0870519,https://maps.google.com/?cid=2973515355264246032,https://m.facebook.com/ntuvethospital/?locale2=zh_TW#!/ntuvethospital/?locale2=zh_TW,ChIJSaA8JNWoQjQREOGxFHYMRCk,
hp0020,迦勒動物醫院,OPERATIONAL,NTP002,241台灣新北市三重區中正南路114號,0229747741,63.5,1,4.5,68.0,2025-09-12,121.494521,25.0583384,https://maps.google.com/?cid=4909361682169451316,,ChIJVeIDLBypQjQRNNOfY3COIUQ,
hp0021,青青動物醫院 — 三重動物醫院 犬貓獸醫 內外科 牙科 泌尿科 健檢,OPERATIONAL,NTP002,241台灣新北市三重區重新路三段31-3號,0229835687,60.0,1,4.5,135.0,2023-01-05,121.4939798,25.0615051,https://maps.google.com/?cid=5382338107484088768,,ChIJX0Qzqx-pQjQRwCmj7f3nsUo,
hp0022,吉立動物醫院,OPERATIONAL,NTP002,241台灣新北市三重區中正北路10號,0229846306,59.0,1,4.7,33.0,2022-09-13,121.4887021,25.0630965,https://maps.google.com/?cid=11417689990980872705,,ChIJe2ZWUeCoQjQRAaryo43Ic54,
hp0023,佳佳獸醫院,OPERATIONAL,NTP002,241台灣新北市三重區重陽路一段20巷4號1樓,0229719531,57.0,1,4.4,301.0,2025-07-04,121.4863792,25.0571097,https://maps.google.com/?cid=2096131040557546401,,ChIJnaHkaeOoQjQRoTsaWxP0Fh0,
hp0024,小森林動物醫院,OPERATIONAL,NTP002,241台灣新北市三重區集英路68號1樓,0282872913,37.5,1,4.1,163.0,2022-03-05,121.4861068,25.0861834,https://maps.google.com/?cid=5332882028532933926,https://m.facebook.com/littleforestanimalhospital/,ChIJuRUJo9SoQjQRJiXFO_MzAko,
hp0025,民生動物醫院,OPERATIONAL,NTP002,241台灣新北市三重區正義北路296號,0229808154,48.0,1,3.7,27.0,2017-08-17,121.4953321,25.0696137,https://maps.google.com/?cid=9492594503317576591,,ChIJufYWySapQjQRj9sRJ2h4vIM,
hp0026,宏誠動物醫院 內視鏡 心臟超音波 醫療中心（預約制,OPERATIONAL,NTP002,241台灣新北市三重區捷運路33號,0229710123,51.5,1,4.5,284.0,2025-01-20,121.4848806,25.0560959,https://maps.google.com/?cid=5320543047623185126,,ChIJzZbztOSoQjQR5hLBXbZd1kk,
hp0027,福林動物醫院,OPERATIONAL,NTP003,235台灣中和區中安街230號,0229218867,72.0,1,4.4,254.0,2025-03-25,121.5122454,24.99855,https://maps.google.com/?cid=235206816479538107,,ChIJ-2Kwrd-pQjQRu2sDeVqfQwM,
hp0028,仁心動物醫院,OPERATIONAL,NTP003,235台灣中和區南華路60號,0222408865,30.0,1,4.0,43.0,2020-03-10,121.504607,24.9970699,https://maps.google.com/?cid=3622667530552767360,,ChIJ4fFqxHcCaDQRgHPw4exMRjI,
hp0029,威安動物醫院,OPERATIONAL,NTP003,235台灣新北市中和區安平路25號 號,0229455050,30.0,1,4.7,139.0,2024-01-31,121.5091899,24.9943886,https://maps.google.com/?cid=4093763946470936490,,ChIJ6-ejzXUCaDQRqo-zn574zzg,
hp0030,好好動物醫院Hao Hao Vet Clinic,OPERATIONAL,NTP003,235台灣新北市中和區中和路464號1樓,0286600005,48.0,1,5.0,8.0,2025-08-16,121.5122969,25.0038853,https://maps.google.com/?cid=15512541069250793441,https://www.facebook.com/profile.php?id=61573744304422,ChIJ7-DPOkipQjQR4Q9a3OmdR9c,
hp0031,寵愛家畜醫院,OPERATIONAL,NTP003,235台灣新北市中和區連城路409號,0222214527,60.0,1,4.7,86.0,2022-09-09,121.4858479,24.9960929,https://maps.google.com/?cid=357504812430732474,https://www.facebook.com/loveyoupet/about/?ref=page_internal,ChIJ778jp4YCaDQRuixtlrsc9gQ,
hp0032,中日動物醫院,OPERATIONAL,NTP003,235台灣新北市中和區中山路三段2號,0222263639,168.0,1,3.5,457.0,2025-08-09,121.4798046,25.0062233,https://maps.google.com/?cid=10549920086652652305,http://www.unitevet.com/dvmcih35ehome.html,ChIJDVNPYkKpQjQREYuwRWzYaJI,
hp0033,杏運草動物醫院,OPERATIONAL,NTP003,235台灣新北市中和區景平路489號,0222436963,33.0,1,4.7,327.0,2021-09-23,121.50009,24.9976826,https://maps.google.com/?cid=17736485587991527139,http://www.medcloverah.tw/,ChIJJ3eAYHgCaDQR4_4RnKunJPY,
hp0034,近易動物醫院,OPERATIONAL,NTP003,235台灣新北市中和區連城路428巷6弄9號1樓,0282287360,0.0,1,0.0,0.0,,121.4804989,24.9955542,https://maps.google.com/?cid=616669992640179282,,ChIJJxbs-n4DaDQRUuz1Thfajgg,
hp0035,名星動物醫院,OPERATIONAL,NTP003,235台灣新北市中和區景平路591號,0222451691,56.0,1,4.2,220.0,2025-05-13,121.4973614,25.0004194,https://maps.google.com/?cid=350055723999013449,,ChIJNz06D9apQjQRSaqNiNOl2wQ,
hp0036,依努動物醫院,OPERATIONAL,NTP003,235台灣新北市中和區安平路56號,0229436696,31.5,1,4.6,522.0,2024-03-07,121.5104703,24.9957749,https://maps.google.com/?cid=12206761977275008460,https://www.facebook.com/YiNu.animal.hospital/,ChIJQyZShXUCaDQRzMU4GVghZ6k,
hp0037,台大員山動物醫院 —內外科、牙科、骨科手術、四級雷射、高壓氧治療中心｜需電話預約｜,OPERATIONAL,NTP003,235026台灣新北市中和區中山路二段577號,0222234519,62.5,1,4.8,616.0,2025-07-02,121.4803939,25.0056639,https://maps.google.com/?cid=3862794878397936704,,ChIJTU-tEfKpQjQRQHQb13lnmzU,
hp0038,綠野特殊寵物專科醫院 (鼠類、兔、天竺鼠、龍貓、刺蝟、貂、蛇、龜、蜥蜴),OPERATIONAL,NTP003,235台灣新北市中和區景平路335-1號,0229468818,57.0,1,4.8,249.0,2025-06-01,121.505628,24.9932403,https://maps.google.com/?cid=3325957877778241820,https://www.facebook.com/profile.php?id=100087608167806,ChIJU2Uh8-IDaDQRHFnichEtKC4,
hp0039,真正動物醫院,OPERATIONAL,NTP003,235台灣新北市中和區安平路200-1號,0229489666,47.0,1,4.4,192.0,2024-12-21,121.513435,24.999417,https://maps.google.com/?cid=7311323644900356501,https://www.facebook.com/realah29489666,ChIJU8jVJN6pQjQRlTEzNB4Kd2U,
hp0040,南勢角動物醫院,OPERATIONAL,NTP003,235台灣新北市中和區捷運路20號,0286689920,57.75,1,4.0,206.0,2025-01-21,121.5089721,24.98987,https://maps.google.com/?cid=6890757362174163140,https://www.facebook.com/NanShiJiaoAH,ChIJ_0u0wHMCaDQRxHjM5U_joF8,
hp0041,和生動物醫院,OPERATIONAL,NTP003,235台灣新北市中和區連城路273號,0222432166,34.0,1,4.8,107.0,2022-04-12,121.4906912,24.9962524,https://maps.google.com/?cid=913208692542681107,,ChIJ_2mYroACaDQREzDOrHderAw,
hp0042,左岸動物醫院內視鏡微創手術中心,OPERATIONAL,NTP003,235台灣新北市中和區福祥路129號1樓,0282453639,66.5,1,4.2,969.0,2025-08-22,121.4984165,25.007153,https://maps.google.com/?cid=10864462006907493998,https://lin.ee/XSYLC3J,ChIJaWjuDNGpQjQRbt5yBaJSxpY,
hp0043,康寶動物醫院,OPERATIONAL,NTP003,235台灣新北市中和區中興街130號,0222455686,54.0,1,4.2,76.0,2023-12-29,121.4997728,24.9923971,https://maps.google.com/?cid=2932235404635962970,,ChIJbTQVtXsCaDQRWn4mm5BksSg,
hp0044,貝果動物醫院 內外科｜牙科,OPERATIONAL,NTP003,235台灣新北市中和區安樂路75號,0231511107,44.5,1,4.7,252.0,2025-08-27,121.5125699,24.9941589,https://maps.google.com/?cid=8678093509654237462,https://www.facebook.com/profile.php?id=100063702234914&mibextid=LQQJ4d,ChIJcUHvXC4DaDQRFlGQihHIbng,
hp0045,承大動物醫院,OPERATIONAL,NTP003,235台灣新北市中和區員山路77巷11弄8號,0222239440,51.0,1,4.7,103.0,2025-01-21,121.4801595,24.9937216,https://maps.google.com/?cid=15478484574383811543,,ChIJgRYAtpoCaDQR16uCPbafztY,
hp0046,五信動物醫院,OPERATIONAL,NTP003,235台灣新北市中和區連城路358號,0222218798,53.5,1,4.2,228.0,2024-12-03,121.4820557,24.9956123,https://maps.google.com/?cid=5351924289201991710,https://www.facebook.com/wushin358/,ChIJlVmt_IQCaDQRHnCrCsnaRUo,
hp0047,新北亞東動物醫院 假日夜間來電急診 兔鼠鳥龜貂鼯特寵 預約出診到府醫療,OPERATIONAL,NTP003,235台灣新北市中和區中正路639號,0222218515,54.0,1,4.1,86.0,2025-08-12,121.485059,24.995565,https://maps.google.com/?cid=15639595713017139297,https://vet639.url.tw/,ChIJr63FCZMDaDQRYdAbWXABC9k,
hp0048,中和杜瑪動物醫院 (貓友善醫院|牙科|心臟科|皮膚內分泌|一般內外科),OPERATIONAL,NTP003,235台灣新北市中和區中原街136號一樓,0222226136,60.0,1,4.7,168.0,2025-10-04,121.4855035,25.0114451,https://maps.google.com/?cid=3144564775243708355,https://zhdumaah.com.tw/,ChIJvbks8r-pQjQRw3eboQC9oys,
hp0049,全國動物醫院 環球分院,OPERATIONAL,NTP003,23546台灣新北市中和區中山路三段122號,0277312991,64.5,1,4.2,319.0,2025-08-09,121.4746989,25.0082357,https://maps.google.com/?cid=17044784092954829369,https://www.vet.com.tw/store_detail.php?Key=4,ChIJvezIzyaoQjQROSLNTdM8i-w,
hp0050,上品動物醫院,OPERATIONAL,NTP003,235台灣新北市中和区中山路二段167號1 樓,0222455853,54.0,1,4.5,151.0,2024-04-13,121.5013783,25.002728,https://maps.google.com/?cid=554828623154939279,,ChIJxYZBFdepQjQRj4VecrElswc,
hp0051,明佳動物醫院,OPERATIONAL,NTP003,235台灣新北市中和區宜安路125號,0229433709,46.5,1,4.3,270.0,2025-04-15,121.509783,24.998136,https://maps.google.com/?cid=16321527811328190699,,ChIJzYbrP9-pQjQR6yjguRG3geI,
hp0052,大新動物醫院（門診為現場掛號，下午4：30和晚上7：30為停止掛號時間，手術需提前預約。）,OPERATIONAL,NTP015,248台灣新北市五股區新五路二段369號,0222920133,63.0,1,5.0,73.0,2025-10-16,121.4440181,25.0882555,https://maps.google.com/?cid=2035307342808834586,https://www.instagram.com/daxin1104/?igsh=MWhyNjVvMW9teDJwZA==#,ChIJLal_MQCnQjQRGmLdqD7dPhw,
hp0053,小傢伙 動物醫院,OPERATIONAL,NTP015,248台灣新北市五股区成泰路一段44號1樓,0282950204,61.0,1,4.5,24.0,2024-07-03,121.4354469,25.0691369,https://maps.google.com/?cid=9710429270012842522,https://www.facebook.com/profile.php?id=100057520866713&mibextid=LQQJ4d,ChIJPU1SPCWmQjQRGtKrF_lfwoY,
hp0054,五股動物醫院,OPERATIONAL,NTP015,248台灣新北市五股區民義路一段34號,0222926568,60.0,1,4.8,156.0,2023-10-08,121.4371018,25.0838318,https://maps.google.com/?cid=5294893711367057436,,ChIJTeeJHL2nQjQRHLB75cY9e0k,
hp0055,愛寶動物醫院,OPERATIONAL,NTP015,248台灣新北市五股區中興路四段49號,0282952268,36.0,1,4.6,140.0,2024-04-25,121.4381747,25.0828215,https://maps.google.com/?cid=4021580856928123350,,ChIJ_xbl2humQjQR1jm2bHuGzzc,
hp0056,成泰動物醫院,OPERATIONAL,NTP015,248台灣新北市五股區成泰路二段143號,0222915537,40.0,1,3.4,42.0,2023-06-07,121.4388385,25.0852691,https://maps.google.com/?cid=5613915422466374519,https://www.facebook.com/CThospital/,ChIJk-_edhumQjQRd_sxO1Wi6E0,
hp0057,麗園動物醫院-八里分院,OPERATIONAL,NTP023,249台灣新北市八里區中山路二段421號,0286302502,34.0,1,4.2,71.0,2023-05-28,121.3971423,25.146134,https://maps.google.com/?cid=9260354645960196317,,ChIJt2DEiVSkQjQR3YCYrnxjg4A,
hp0058,禾米動物醫院,OPERATIONAL,NTP013,236台灣新北市土城區金城路三段173號,0222611212,52.0,1,4.6,26.0,2025-08-04,121.4692813,24.9888926,https://maps.google.com/?cid=10866629307369729279,https://www.facebook.com/profile.php?id=100063943204628&mibextid=kFxxJD,ChIJ-Q-kKAADaDQR_yyf-8cFzpY,
hp0059,先鋒家畜診所,OPERATIONAL,NTP013,236台灣新北市土城區立德路26號,,0.0,1,3.8,12.0,2022-10-21,121.4629644,24.9875505,https://maps.google.com/?cid=6760162787516710351,,ChIJKyGUS78CaDQRz32_BT3s0F0,
hp0060,可麗兒動物醫院,OPERATIONAL,NTP013,236台灣台灣省土城區中央路二段20號,0222606861,0.0,1,3.5,26.0,2023-06-11,121.442682,24.980489,https://maps.google.com/?cid=6011749835196489220,,ChIJRaw1gC0daDQRBF5mnZ8GblM,
hp0061,馨田動物醫院,OPERATIONAL,NTP013,236台灣新北市土城區金城路二段388號,0222607789,67.0,1,3.8,181.0,2025-06-12,121.4636308,24.985548,https://maps.google.com/?cid=11705717343498218907,https://www.facebook.com/wonderlandanimalclinic/timeline,ChIJT6GWusACaDQRmy1XhOcPc6I,
hp0062,佳生動物醫院,OPERATIONAL,NTP013,236台灣新北市土城區學府路一段60號,0222700825,63.0,1,3.6,130.0,2025-01-23,121.4571392,24.9884811,https://maps.google.com/?cid=7031831313296607119,,ChIJXTxHiLgCaDQRj0eDvVIVlmE,
hp0063,馨晨動物醫院-土城寵物醫院|動物洗牙|動物眼科|寵物X光|寵物牙科|寵物健康諮詢|動物心臟病|動物家醫科,OPERATIONAL,NTP013,236台灣新北市土城區清水路53號,0282731853,45.0,1,5.0,66.0,2025-08-11,121.4550935,24.9810751,https://maps.google.com/?cid=10459630946439717644,https://www.shinchen.com.tw/,ChIJmZCakaQDaDQRDOM4pO0SKJE,
hp0064,安星動物醫院&寵物美容,OPERATIONAL,NTP013,236台灣新北市土城區中央路二段8號,0282621687,66.0,1,4.1,207.0,2025-06-28,121.4428603,24.9808228,https://maps.google.com/?cid=8748473966907095725,https://www.facebook.com/anshing/info,ChIJq2OHgDIdaDQRrfo_tLjSaHk,
hp0065,王動物醫院,OPERATIONAL,NTP013,236台灣新北市土城區中央路三段141之7號,,0.0,1,2.0,4.0,2020-10-20,121.4333323,24.9650395,https://maps.google.com/?cid=5937074441338539773,,ChIJr-IXb9ocaDQR_c4Imb-5ZFI,
hp0066,大曜動物醫院,OPERATIONAL,NTP013,236台灣新北市土城區學成路46號1樓,0282602323,45.0,1,4.4,261.0,2024-06-28,121.4524205,24.9875812,https://maps.google.com/?cid=1401087518311927985,https://www.facebook.com/Dr.LiaosAH/,ChIJr8xGk8kCaDQRsVA3tKypcRM,
hp0067,康馨動物醫院,OPERATIONAL,NTP013,236台灣新北市土城區中央路一段234號,0222708259,61.0,1,4.2,141.0,2024-10-21,121.4445696,24.9852457,https://maps.google.com/?cid=9671577734512497156,https://www.facebook.com/share/1DYkcsR5Du/?mibextid=wwXIfr,ChIJux9OWTMdaDQRBNIxE7VYOIY,
hp0068,毛宇宙動物醫院（預約制）| 土城獸醫推薦 | 土城狗貓健檢 | 土城動物內科 | 土城狗貓牙科 | 土城狗貓心臟病 | 土城動物醫院推薦,OPERATIONAL,NTP013,236台灣新北市土城區員林街71巷2號,0282616079,57.0,1,4.9,251.0,2025-06-02,121.4444796,24.9772564,https://maps.google.com/?cid=6811138006639885672,https://www.facebook.com/%E6%AF%9B%E5%AE%87%E5%AE%99%E5%8B%95%E7%89%A9%E9%86%AB%E9%99%A2-115998691111828,ChIJx4vVn6IdaDQRaL3uGe4Fhl4,
hp0069,耕莘動物醫院,OPERATIONAL,NTP006,231台灣新北市新店區光明街157號,0229100995,42.0,1,3.9,155.0,2024-11-05,121.5395415,24.9624161,https://maps.google.com/?cid=4990474979249996763,http://www.petline.com.tw/petline/cgi/index_factory.cgi?t=petfactory_view&ID=12115&R23=1000&PAGEMENU=3,ChIJ5bmInIkBaDQR28Orjo26QUU,
hp0070,長青動物醫院 央北分院,OPERATIONAL,NTP006,231台灣新北市新店區央北一路112號,0222185798,63.0,1,5.0,13.0,2025-09-26,121.5268573,24.9777763,https://maps.google.com/?cid=3549486841403243001,http://egah.com.tw/,ChIJ9XzEQQADaDQR-XnD7HlPQjE,
hp0071,初日動物醫院-新店動物醫院推薦 寵物洗牙 獸醫推薦 寵物心臟超音波 寵物健康檢查 寵物結紮,OPERATIONAL,NTP006,231038台灣新北市新店區民族路25號1樓,0289146420,48.0,1,4.8,264.0,2025-04-12,121.5410947,24.9786121,https://maps.google.com/?cid=18005120792640247408,https://linktr.ee/hatsuhi_ah,ChIJFx_x0GQBaDQRcFZSN_cJ3_k,
hp0072,心橋動物醫院,OPERATIONAL,NTP006,231台灣新北市新店區寶強路2-1號,0289146099,48.5,1,5.0,53.0,2025-10-21,121.5438445,24.977891,https://maps.google.com/?cid=1846819752834188891,http://heartbridge-vet.com/,ChIJGWpVEAABaDQRW0bbw8c4oRk,
hp0073,剛果非犬貓動物醫院(營業時間以臉書公告為準),OPERATIONAL,NTP006,231台灣新北市新店區中興路三段259號,0286655702,32.0,1,4.4,843.0,2025-09-17,121.5422719,24.98459,https://maps.google.com/?cid=13144064997423746458,https://www.facebook.com/congovet,ChIJR0tppf4BaDQRmo0WlHkZabY,
hp0074,明滙動物醫院,OPERATIONAL,NTP006,231台灣新北市新店區安祥路104-7號,0282151631,29.0,1,4.6,94.0,2025-08-13,121.4795229,24.9623994,https://maps.google.com/?cid=8778682076227000467,https://www.facebook.com/margramanimalhospital/,ChIJR9sNJv4CaDQRk1iZPdYk1Hk,
hp0075,中友動物專科醫院,OPERATIONAL,NTP006,231台灣新北市新店區中正路19號,0229153597,75.0,1,4.6,115.0,2025-05-18,121.5453914,24.9693639,https://maps.google.com/?cid=15914148655962939594,,ChIJTUS5A_MBaDQRymBuxeJp2tw,
hp0076,康爾維動物醫院,OPERATIONAL,NTP006,231台灣新北市新店區安康路二段308號,0286669595,33.0,1,4.6,369.0,2024-08-30,121.5063782,24.9583003,https://maps.google.com/?cid=6550498568061858771,,ChIJTya3mFICaDQR0zMI270L6Fo,
hp0077,原典動物醫院,OPERATIONAL,NTP006,231台灣新北市新店區中央五街15號,0222181855,49.0,1,4.6,453.0,2024-10-21,121.529744,24.974472,https://maps.google.com/?cid=6634252005726471995,http://facebook.com/vetorigin/?locale2=zh_TW,ChIJVbpOGBkCaDQRO8e_pwyZEVw,
hp0078,惠安犬貓醫院,OPERATIONAL,NTP006,231台灣新北市新店區北新路二段94號1樓,0229142518,75.0,1,4.2,83.0,2023-03-28,121.5431385,24.973175,https://maps.google.com/?cid=11344911669781242648,,ChIJf_N6VvEBaDQRGKN-RQ45cZ0,
hp0079,為了一隻狗開一家動物醫院 ONE ON ONE ANIMAL HOSPITAL《雙北/台北/新北/新店》狗貓洗牙｜寵物骨科｜貓獨立診間｜狗貓寵物電腦斷層CT｜健檢動物醫院｜犬貓腫瘤科,OPERATIONAL,NTP006,231台灣新北市新店區中興路二段219號,0289133211,49.0,1,4.7,144.0,2023-07-06,121.5478611,24.9743028,https://maps.google.com/?cid=634900709404030490,http://oneononevet.com/,ChIJfzMyxoIBaDQRGrar09Sezwg,
hp0080,高登動物醫院,OPERATIONAL,NTP006,231台灣新北市新店區三民路106號,0229173512,56.0,1,4.8,84.0,2024-07-15,121.5342403,24.9738948,https://maps.google.com/?cid=849917312983311827,,ChIJleAwYB4CaDQR0yXTCEuDyws,
hp0081,金氏動物醫院,OPERATIONAL,NTP006,231台灣新北市新店區中興路一段208號,0289146999,20.0,1,4.7,107.0,2025-06-20,121.5438856,24.9654357,https://maps.google.com/?cid=18006003846089585851,https://www.facebook.com/%E9%87%91%E6%B0%8F%E5%8B%95%E7%89%A9%E9%86%AB%E9%99%A2-112946523805672/,ChIJnT1xsWcBaDQRu7R8Hhkt4vk,
hp0082,新店喬伊寵物醫院,OPERATIONAL,NTP006,231台灣新北市新店区檳榔路9號02 2911 6955,0229116955,50.0,1,4.5,117.0,2023-06-06,121.5411806,24.9648996,https://maps.google.com/?cid=12988396515756773053,https://www.facebook.com/%E6%96%B0%E5%BA%97%E5%96%AC%E4%BC%8A%E5%AF%B5%E7%89%A9%E9%86%AB%E9%99%A2-Joy-Veterinary-Hospital-167990716565547/,ChIJw2DRoosBaDQRvY6ay9ANQLQ,
hp0083,愛達司動物醫院,OPERATIONAL,NTP006,231台灣新北市新店區中興路一段261號,0289147888,69.0,1,4.6,1019.0,2025-10-19,121.54449,24.9674619,https://maps.google.com/?cid=1043530976376481984,http://www.aah.tw/,ChIJxW2gNPMBaDQRwGgJ5-Rdew4,
hp0084,快樂動物醫院,OPERATIONAL,NTP005,242台灣新北市新莊區福營路242號,0229088772,63.0,1,4.0,714.0,2025-04-13,121.4265251,25.0290914,https://maps.google.com/?cid=8776274553339567061,http://happyanimal.com.tw/,ChIJ4Rghsu2nQjQR1dsaIzWXy3k,
hp0085,杏福動物醫院,OPERATIONAL,NTP005,242台灣新北市新莊區幸福路73號,0222779099,52.5,1,4.0,171.0,2024-03-03,121.4570139,25.0493253,https://maps.google.com/?cid=15815163912905984182,,ChIJ4d5Q02KoQjQRtohWVcm_ets,
hp0086,霍普獸醫病理診斷中心,OPERATIONAL,NTP005,242台灣新北市新莊區中信街176號20F之6,0285227590,45.0,1,5.0,1.0,2023-06-19,121.4478236,25.0578812,https://maps.google.com/?cid=16397012721615146422,https://kuelhoney.wixsite.com/hopevetpath,ChIJ6_ebluOpQjQRto1u-THkjeM,
hp0087,慈愛動物醫院-台北總院,OPERATIONAL,NTP005,10356台灣臺北市大同區寧夏路1號,0225563320,168.0,1,3.5,746.0,2025-10-15,121.5149591,25.0543129,https://maps.google.com/?cid=17559664955692136582,https://m.facebook.com/Lkah011,ChIJ7UQOWmupQjQRhrjn-j12sPM,
hp0088,太僕動物醫院(新莊院)高壓氧治療中心/四級雷射治療/鼠兔專科,OPERATIONAL,NTP005,242台灣新北市新莊區中正路853號,0229089070,59.5,1,4.1,301.0,2025-09-22,121.4201277,25.0279691,https://maps.google.com/?cid=3101473365440659819,http://topvet.topet.net/,ChIJ81e2fo2nQjQRawFt85elCis,
hp0089,珍寶動物醫院,OPERATIONAL,NTP005,242台灣新北市新莊區中平路270巷2號,0229960119,69.0,1,4.9,65.0,2025-10-21,121.4449583,25.0499978,https://maps.google.com/?cid=15885083182063801439,https://www.facebook.com/share/1FjBDfrUM6/?mibextid=wwXIfr,ChIJAbf6QvinQjQRX9Rxxv0mc9w,
hp0090,哈比動物醫院,OPERATIONAL,NTP005,242台灣新北市新莊區幸福路596號,0229979733,45.0,1,4.9,488.0,2024-04-23,121.4533914,25.0493775,https://maps.google.com/?cid=12130468846530768838,,ChIJDUSxCE6pQjQRxq9oXCUVWKg,
hp0091,聖安動物醫院,OPERATIONAL,NTP005,242台灣新北市新莊區中港路256號,0222776711,57.0,1,4.4,1253.0,2025-10-18,121.4538019,25.0434915,https://maps.google.com/?cid=15219997951252878807,,ChIJEw87V3qoQjQR19WZZn9LONM,
hp0092,念念動物醫院24小時犬貓急診重症加護,OPERATIONAL,NTP005,242台灣新北市新莊區新知三路61號,0285218710,168.0,1,4.5,203.0,2025-04-28,121.4556895,25.0611113,https://maps.google.com/?cid=3512945962253732748,https://covenant-vet.com/shift/,ChIJG7JoBQCpQjQRjMtGg719wDA,
hp0093,新泰動物醫院,OPERATIONAL,NTP005,242台灣新北市新莊區新泰路402號,0222769427,50.0,1,4.8,135.0,2025-06-29,121.4440087,25.0438143,https://maps.google.com/?cid=8295123351450242317,,ChIJHXYKIdinQjQRDU09G70yHnM,
hp0094,嘉貝動物醫院『預約制』- 腫瘤科/麻醉科/牙科/眼科/內科/外科 - 新莊動物醫院｜副都心動物醫院,OPERATIONAL,NTP005,242台灣新北市新莊區昌和街65號,0285219838,69.0,1,4.5,227.0,2025-10-19,121.4526817,25.0562346,https://maps.google.com/?cid=11249175157904949424,http://www.furbabyah.com/,ChIJMc0Hq-GpQjQRsMASlzQZHZw,
hp0095,牧平動物醫院,OPERATIONAL,NTP005,242台灣新北市新莊區麗水街81號,0285215219,24.5,1,4.8,46.0,2025-07-03,121.4515779,25.058256,https://maps.google.com/?cid=2760907145445799774,,ChIJMeOakZ2pQjQRXncivmu2UCY,
hp0096,登華動物醫院 台大x中興獸醫聯合診治 高壓氧 內視鏡 中獸醫針灸 心臟超音波 膽囊手術-新莊動物醫院推薦|專業動物醫院|寵物健康諮詢|貓狗皮膚科|狗貓急救|寵物X光|寵物險特約醫院,OPERATIONAL,NTP005,242台灣新北市新莊區龍安路256號2樓,0222060006,63.0,1,4.6,475.0,2025-09-07,121.4214593,25.0194331,https://maps.google.com/?cid=3583610339459616530,https://www.facebook.com/WonderfulVeterinayHospital,ChIJN4pDSPCnQjQREk_o8J2KuzE,
hp0097,飛躍動物醫院(週日公休/預約制),OPERATIONAL,NTP005,242台灣新北市新莊區中原東路200號,0285220040,42.0,1,4.8,279.0,2025-07-05,121.4602959,25.0546808,https://maps.google.com/?cid=1558922788671946294,https://www.facebook.com/leapdogcatrabbit/,ChIJVRMHzySpQjQRNn4NSwRoohU,
hp0098,永吉家畜醫院,OPERATIONAL,NTP005,242台灣新北市新莊區新泰路158號,0222777627,45.5,1,4.4,114.0,2025-07-14,121.4476696,25.0375904,https://maps.google.com/?cid=10550752566533202553,,ChIJ_Rzz2XWoQjQReaJAGY_Na5I,
hp0099,杰輝家畜醫院,OPERATIONAL,NTP005,242台灣新北市新莊區西盛街159號,0222012881,72.0,1,3.8,29.0,2021-03-30,121.4282357,25.0179249,https://maps.google.com/?cid=9091941889971012420,,ChIJc9pu1_WnQjQRREM3TvoQLX4,
hp0100,布納動物醫院(採電話預約制) - 台大獸醫團隊、腫瘤科、牙科、貓友善、心臟科、超音波,OPERATIONAL,NTP005,242台灣新北市新莊區思源路332巷22號1樓,0229900262,56.0,1,4.9,264.0,2025-03-20,121.4606427,25.0508125,https://maps.google.com/?cid=3869596511609006816,https://bonheurvet.com/,ChIJcdkn5ACpQjQR4KqLeoaRszU,
hp0101,銘德動物醫院,OPERATIONAL,NTP005,242台灣新北市新莊區後港一路14號,0222043333,60.0,1,3.9,230.0,2023-04-23,121.4247958,25.0258095,https://maps.google.com/?cid=16294760281686804491,,ChIJgzObwOinQjQRCwgWkiSeIuI,
hp0102,護生動物醫院,OPERATIONAL,NTP005,242台灣新北市新莊區中和街93號,0229972812,33.0,1,4.6,178.0,2024-04-06,121.4472607,25.0480585,https://maps.google.com/?cid=2183397008906699972,,ChIJhVg8yXioQjQRxMSI7wL8TB4,
hp0103,同心動物醫院,OPERATIONAL,NTP005,242台灣新北市新莊區新泰路474號,0289924900,63.0,1,4.5,177.0,2025-06-13,121.4430853,25.0453403,https://maps.google.com/?cid=5632145171187251950,https://www.tongxinvet.com/index.html,ChIJiS5pv4-nQjQR7joMXDFmKU4,
hp0104,飛梅利動物醫院-新莊動物住院 新莊寵物腎臟科/洗腎 新莊動物心臟病 新莊動物洗牙 新莊急診動物醫院 新莊犬貓/鼠兔專科醫院,OPERATIONAL,NTP005,242台灣新北市新莊區中興街17號,0222770702,105.0,1,4.7,149.0,2025-08-08,121.4491331,25.0363228,https://maps.google.com/?cid=8556780964753899823,https://family-animalhospital.weebly.com/,ChIJiXApkXWpQjQRLwH7oPPKv3Y,
hp0105,恆揚獸醫院,OPERATIONAL,NTP005,242台灣新北市新莊區幸福路904號,0229931610,69.0,1,4.7,75.0,2024-02-03,121.4429996,25.0491322,https://maps.google.com/?cid=9929398380455095871,,ChIJifQSfdanQjQRP25dBDhPzIk,
hp0106,魏大夫動物醫院,OPERATIONAL,NTP005,242台灣新北市新莊區中原東路57號1樓,0229900578,56.0,1,4.6,320.0,2025-06-29,121.4634122,25.0542713,https://maps.google.com/?cid=12396609921254123194,,ChIJjy_mokmpQjQRumZvFwubCaw,
hp0107,小水豚非犬貓動物醫院,OPERATIONAL,NTP005,242台灣新北市新莊區幸福東路140號1樓,0229906905,55.5,1,4.9,167.0,2025-07-21,121.4624177,25.0495575,https://maps.google.com/?cid=12358356635394616859,,ChIJm5eaLNGpQjQRG65J7OGzgas,
hp0108,守護動物醫院,OPERATIONAL,NTP005,242台灣新北市新莊區中正路891-32號,0229047859,54.0,1,4.2,113.0,2024-05-03,121.4146851,25.0232567,https://maps.google.com/?cid=580065483317244441,https://www.facebook.com/zhouse02,ChIJsV-wI4mnQjQRGfKW13vODAg,
hp0109,寵物好事-貓の專門店(新莊店),OPERATIONAL,NTP005,24243台灣新北市新莊區中正路425號,0979077077,70.0,1,4.9,46.0,2025-01-11,121.4441582,25.0341605,https://maps.google.com/?cid=11435547432455435515,https://happypet.com.tw/,ChIJtUdrMWKnQjQR-_SiO805s54,
hp0110,安安動物醫院,OPERATIONAL,NTP005,242台灣新北市新莊區雙鳳路105號,0229013230,48.0,1,4.2,235.0,2025-09-01,121.4141373,25.0279951,https://maps.google.com/?cid=3396229037810357721,https://www.facebook.com/anan.animal.hospital/,ChIJw67gQ4-nQjQR2ZWN3lDUIS8,
hp0111,亞麥動物醫院,OPERATIONAL,NTP001,220台灣新北市板橋區國光路77號,0222724481,57.0,1,4.8,269.0,2025-09-08,121.4596436,25.0183523,https://maps.google.com/?cid=18030019479666213518,,ChIJ1SieiRqoQjQRjsLgijB_N_o,
hp0112,板橋上弦動物醫院(24小時夜間急診手術),OPERATIONAL,NTP001,220台灣新北市板橋區府中路126之1號,0222728119,168.0,1,4.8,26.0,2025-10-13,121.4551455,25.0095482,https://maps.google.com/?cid=16736996140707920993,https://www.sensationah.com/,ChIJ3z5z3TypQjQRYbz6RVDBReg,
hp0113,聖博動物醫院,OPERATIONAL,NTP001,220台灣板橋區重慶路299號,0229570958,46.0,1,4.7,218.0,2024-11-20,121.4637568,24.9989649,https://maps.google.com/?cid=5938648052712130862,,ChIJ49OQcaMCaDQRLsn4i_BQalI,
hp0114,板新動物醫院。犬、貓、鼠、兔。門診預約制。,OPERATIONAL,NTP001,220台灣新北市板橋區中正路332-11號,0229695866,40.0,1,4.3,301.0,2025-07-27,121.4544368,25.0231232,https://maps.google.com/?cid=14470401834306603136,https://www.facebook.com/%E6%9D%BF%E6%96%B0%E5%8B%95%E7%89%A9%E9%86%AB%E9%99%A2-104167987625185/?modal=admin_todo_tour,ChIJ4zrsVA6oQjQRgIgBA80x0cg,
hp0115,仁愛動物醫院,OPERATIONAL,NTP001,220台灣新北市板橋區民族路179號,0229594455,70.0,1,4.0,340.0,2025-10-02,121.4687133,25.0076203,https://maps.google.com/?cid=15289515343762757255,,ChIJ9Yq1uB-oQjQRhxbdpDJFL9Q,
hp0116,牧村動物醫院,OPERATIONAL,NTP001,220台灣新北市板橋區中山路二段28號,0289511172,87.5,1,4.1,295.0,2025-10-15,121.4727188,25.0150678,https://maps.google.com/?cid=14817503570060710489,https://www.facebook.com/mtpet/,ChIJC0ZM6DyoQjQRWRKNj_1Yos0,
hp0117,佳安動物醫院 寵物醫療｜犬貓醫療｜鼠兔門診｜特寵門診｜推薦動物醫院,OPERATIONAL,NTP001,220台灣新北市板橋區四川路一段234號,0229511301,50.5,1,4.7,189.0,2025-02-24,121.4591632,25.001751,https://maps.google.com/?cid=16892477385683388004,https://lunlun19661231.wixsite.com/mysite,ChIJCZFvgaQDaDQRZEb6na4ibuo,
hp0118,板橋台大動物醫院,OPERATIONAL,NTP001,220台灣新北市板橋區文化路二段11號,0222580809,63.5,1,4.4,265.0,2025-01-12,121.4685139,25.0243835,https://maps.google.com/?cid=6918108689868489106,,ChIJCwQIiBWoQjQRkoEnITMPAmA,
hp0119,愛心堡動物醫院(預約優先制),OPERATIONAL,NTP001,220台灣新北市板橋區合宜一路69號,0229680101,41.0,1,4.8,157.0,2021-12-09,121.4443678,24.9964418,https://maps.google.com/?cid=14201281554775267144,https://m.facebook.com/lovefield0423/,ChIJEYCEI_IdaDQRSNevG1UWFcU,
hp0120,邁德氏賽鴿寵物鳥專科醫院,OPERATIONAL,NTP001,220台灣新北市板橋區海山路11號,0289512330,43.0,1,4.5,594.0,2025-02-04,121.4692911,25.0093359,https://maps.google.com/?cid=10528367457488791711,,ChIJFeMmziGoQjQRn-hmwGtGHJI,
hp0121,呼嚕貓專科醫院 Purring Cat Hospital｜預約制看診（板橋｜動物醫院｜推薦）,OPERATIONAL,NTP001,220030台灣新北市板橋區光武街95號1樓,0222505251,59.5,1,4.9,202.0,2025-05-20,121.4666295,25.0271041,https://maps.google.com/?cid=13234588332080574060,https://www.facebook.com/purringcat.h,ChIJGSMLDoupQjQRbC4x2vezqrc,
hp0122,板橋維納斯動物醫院（預約制，請先電話聯繫）,OPERATIONAL,NTP001,"請先, 電話聯繫，請勿直接到現場, No. 105號中山路一段板橋區新北市台灣 220",0229649250,152.0,1,4.1,200.0,2024-07-28,121.4617406,25.0102391,https://maps.google.com/?cid=2366691224130229572,,ChIJJYByE-YDaDQRRBVRCyEt2CA,
hp0123,青亞動物醫院-預約制 (外科、骨科、牙科、腫瘤外科、一般內科),OPERATIONAL,NTP001,220台灣新北市板橋區光環路一段80號一樓,0229528989,44.0,1,5.0,300.0,2025-10-02,121.4816444,25.01681,https://maps.google.com/?cid=14091828550405096790,https://www.facebook.com/%E9%9D%92%E4%BA%9E%E5%8B%95%E7%89%A9%E9%86%AB%E9%99%A2-113007723881493/,ChIJMeF3taWpQjQRVoWapmc7kMM,
hp0124,愛叮寶犬貓影像專科醫院,OPERATIONAL,NTP001,"1樓, No. 175號合宜一路板橋區新北市台灣 220",0958639972,40.0,1,5.0,18.0,2024-06-11,121.445484,24.9957892,https://maps.google.com/?cid=14421865331488837869,https://www.facebook.com/atinsightveterinarydiagnosticimaging,ChIJP6ainjkdaDQR7dDp0RvCJMg,
hp0125,隆安動物醫院,OPERATIONAL,NTP001,220台灣新北市板橋區忠孝路79號,0289533055,66.0,1,4.3,45.0,2024-10-05,121.46194,25.0022232,https://maps.google.com/?cid=1292037728549514458,,ChIJQ5U7G6QCaDQR2qyY9nc97hE,
hp0126,紐約紐約動物醫院 內視鏡 微創手術 骨科 高壓氧中心,OPERATIONAL,NTP001,22047台灣新北市板橋區文化路二段139號,0222501636,48.50000000000001,1,4.3,329.0,2019-04-05,121.469953,25.026859,https://maps.google.com/?cid=16802008651500395238,https://www.facebook.com/nynypetservice/,ChIJUQ7QYcOpQjQR5pq4Adm5LOk,
hp0127,麗明動物醫院（24小時住院看護｜門診預約制｜有提供夜間急診服務（請先電話聯繫預約）,OPERATIONAL,NTP001,22071台灣新北市板橋區金門街306號1樓之一,0286873377,168.0,1,4.6,242.0,2025-07-01,121.4286761,24.98563,https://maps.google.com/?cid=8488663832403100450,https://liming-vet.com/,ChIJV2XCO44daDQRIsMX3MfKzXU,
hp0128,板橋雙十動物醫院,OPERATIONAL,NTP001,220台灣新北市板橋區雙十路二段4號,0222502000,73.5,1,4.2,181.0,2024-01-04,121.4773197,25.0255143,https://maps.google.com/?cid=7545552778819705572,,ChIJV7tnkEapQjQR5JqCN0Ywt2g,
hp0129,台大文仁動物醫院 骨科 內視鏡,OPERATIONAL,NTP001,220台灣新北市板橋區篤行路三段18號,0226833122,45.0,1,4.0,454.0,2025-09-14,121.4287605,24.9873566,https://maps.google.com/?cid=906507113366352897,http://www.wellknown-pet.com.tw/index.html,ChIJVyuChTwdaDQRAfSQrmqPlAw,
hp0130,"樂毛動物醫院-板橋寵物外科|犬貓牙科|動物內科|動物醫院推薦|專業動物醫療|寵物健康管理-10/16, 10/23各休診一日",OPERATIONAL,NTP001,220台灣新北市板橋區忠孝路169號,0229581065,53.5,1,4.9,130.0,2025-08-25,121.4639292,25.0027168,https://maps.google.com/?cid=8031823363205078088,https://www.facebook.com/Ahlovemore,ChIJX1jziHMDaDQRSJyFXsvEdm8,
hp0131,"舍享動物醫院(預約優先, English Service Available, 門診掛號時間至20:30, 超過採急診計費)",OPERATIONAL,NTP001,220050台灣新北市板橋區西門街46號,0229685116,72.0,1,5.0,42.0,2025-10-12,121.4539828,25.0099428,https://maps.google.com/?cid=6040301743206947952,https://www.facebook.com/profile.php?id=100088337083245&mibextid=LQQJ4d,ChIJZTECVDipQjQRcNwFvG5201M,
hp0132,展翔動物醫院 (預約制) 犬貓暨特寵【鸚鵡&寵物鳥｜鼠｜兔｜天竺鼠｜龜｜刺蝟｜蜜袋鼯｜雪貂】 聯合門診,OPERATIONAL,NTP001,220台灣新北市板橋區南雅西路二段97號,0289650318,54.0,1,4.6,347.0,2025-08-29,121.4525709,25.0104595,https://maps.google.com/?cid=13948303652924906063,https://www.facebook.com/974lbpwk/,ChIJZw716oipQjQRT1rfY0VUksE,
hp0133,欣光動物專科醫院｜外科。內視鏡。腫瘤科。內科。眼科。中獸醫,OPERATIONAL,NTP001,220台灣新北市板橋區中正路332-3號,0222720105,57.5,1,4.9,67.0,2025-10-19,121.454649,25.022444,https://maps.google.com/?cid=4132716356861854765,https://www.yayaah.com.tw/,ChIJcbi7JQCpQjQRLYQyaKFbWjk,
hp0134,躍生動物醫院,OPERATIONAL,NTP001,220台灣新北市板橋區民權路258-2號,0289681075,52.5,1,4.8,472.0,2023-01-14,121.4580861,25.0151224,https://maps.google.com/?cid=5009222295068088539,https://www.facebook.com/profile.php?id=100092724853763&mibextid=LQQJ4d,ChIJcdxGRBuoQjQR2xiAKiNVhEU,
hp0135,富安家畜醫院,OPERATIONAL,NTP001,220台灣新北市板橋區文化路二段335號,0222513076,49.5,1,4.6,172.0,2022-02-03,121.4724603,25.0303867,https://maps.google.com/?cid=14428070301196625644,,ChIJfziZE0GoQjQR7CYw6X7NOsg,
hp0136,沐愛動物醫院,OPERATIONAL,NTP001,220台灣新北市板橋區國光路166號,0229602233,46.0,1,4.7,757.0,2023-04-17,121.4602241,25.0181804,https://maps.google.com/?cid=11360693667477002147,https://www.facebook.com/vetwithlove/,ChIJhZZvZBqoQjQRoxf_87JKqZ0,
hp0137,種籽動物醫院 (預約優先制),OPERATIONAL,NTP001,220台灣新北市板橋區篤行路二段76號,0286871162,51.0,1,4.8,169.0,2025-10-26,121.431457,24.992026,https://maps.google.com/?cid=12096389180096640560,http://www.zhongzi-vet.com/,ChIJiZKdcqsdaDQRMPaJsN4B36c,
hp0138,家麒獸醫院,OPERATIONAL,NTP001,241台灣新北市三重區力行路二段135號,0222807675,57.0,1,5.0,7.0,2025-01-09,121.4834526,25.0769715,https://maps.google.com/?cid=677971363946751305,https://www.instagram.com/chia_chi_animal_hospital?igshid=NGVhN2U2NjQ0Yg%3D%3D&utm_source=qr,ChIJj_G2AZqpQjQRSeXuC12jaAk,
hp0139,板橋動物醫院,OPERATIONAL,NTP001,220台灣新北市板橋區文化路二段522號1樓,0222523218,35.0,1,4.4,159.0,2025-05-24,121.4761331,25.0336919,https://maps.google.com/?cid=3640990401261167010,,ChIJpSrGWESoQjQRomHHqXplhzI,
hp0140,五洲獸醫院,OPERATIONAL,NTP001,220台灣新北市板橋區民權路250號,0222546660,72.0,1,3.9,25.0,2022-01-24,121.4583928,25.0148173,https://maps.google.com/?cid=1907156680593184733,,ChIJpaAsXRuoQjQR3RfFfeWUdxo,
hp0141,橙芯動物醫院,OPERATIONAL,NTP001,220056台灣新北市板橋區貴興路100號,0277136617,52.5,1,4.6,347.0,2025-03-04,121.4555994,25.0025908,https://maps.google.com/?cid=3222479399532725922,https://www.chenghsin-vet.com/,ChIJpy6Xw8UDaDQRooYpwfCLuCw,
hp0142,吉恩動物醫院（預約制）,OPERATIONAL,NTP001,220台灣新北市板橋區華江一路622號,0222579596,51.0,1,4.9,332.0,2025-09-15,121.4647944,25.0330053,https://maps.google.com/?cid=14345221645016880386,https://www.jinnvet.com.tw/,ChIJqUlCc8apQjQRAtV59xR3FMc,
hp0143,後埔獸醫院,OPERATIONAL,NTP001,220台灣新北市板橋區館前西路156-1號,0229678864,51.5,1,2.8,6.0,2018-03-20,121.4550859,25.0085821,https://maps.google.com/?cid=8765937355285786754,,ChIJs3jXO6gCaDQRgvAiqZTdpnk,
hp0144,馬達加斯加動物醫院,OPERATIONAL,NTP001,220台灣新北市板橋區文化路二段500號,0282595001,56.0,1,4.1,657.0,2025-05-28,121.4756442,25.0333292,https://maps.google.com/?cid=13920594257542223624,https://www.facebook.com/madagascaranimalhospital/,ChIJt_T7Z0SoQjQRCJclB7niL8E,
hp0145,曙光動物醫院,OPERATIONAL,NTP001,220台灣新北市板橋區中山路一段309號,0229529000,53.0,1,4.3,163.0,2023-03-28,121.4714608,25.0147564,https://maps.google.com/?cid=11754669592262319349,,ChIJuYLVHSOoQjQR9ZzhGrf5IKM,
hp0146,亞哲動物醫院,OPERATIONAL,NTP001,220台灣新北市板橋區中山路二段388-4號,0229646263,64.0,1,4.7,107.0,2025-04-02,121.4823693,25.0205079,https://maps.google.com/?cid=10716933039412485798,https://www.facebook.com/yazhevet,ChIJv2KPnlWpQjQRph7Uj9ExupQ,
hp0147,長佐動物醫院(犬貓內視鏡微創醫療團隊) *21:00-23:30為夜間急診收費,OPERATIONAL,NTP001,220台灣新北市板橋區永翠路348號1樓,0229681389,91.0,1,4.8,176.0,2024-05-14,121.4505814,25.0181944,https://maps.google.com/?cid=11500157302312426380,https://www.facebook.com/ctah.vet?mibextid=LQQJ4d,ChIJwcWmhSypQjQRjFty0SLEmJ8,
hp0148,嘉棋動物醫院,OPERATIONAL,NTP001,220台灣新北市板橋區四川路二段115號,0289662551,55.0,1,3.8,124.0,2025-07-25,121.4514846,24.9941938,https://maps.google.com/?cid=12432185807110807638,,ChIJxdywq7YCaDQRViB-fh__h6w,
hp0149,琪欣動物醫院-林口總院,OPERATIONAL,NTP017,244台灣新北市林口區仁愛路二段323號,0226080555,61.0,1,4.5,86.0,2025-09-11,121.3714504,25.0787481,https://maps.google.com/?cid=311228313718655245,https://www.facebook.com/profile.php?id=100057469989276&mibextid=kFxxJD,ChIJ6-Q9IwCnQjQRDYk-m4C0UQQ,
hp0150,懷恩動物醫院,OPERATIONAL,NTP017,244台灣新北市林口區文化北路一段307號1 樓,0286018432,54.0,1,4.3,292.0,2025-05-11,121.3609878,25.0737492,https://maps.google.com/?cid=9371431506738244789,https://zh-tw.facebook.com/petcare88,ChIJAQAAACenQjQRtWwJrE0DDoI,
hp0151,日祥動物醫院,OPERATIONAL,NTP017,244台灣新北市林口區中正路504號,0226011780,45.5,1,4.7,278.0,2023-09-26,121.3821073,25.0773445,https://maps.google.com/?cid=10728145778170366815,,ChIJC6GdEeWmQjQRX4tzvr4H4pQ,
hp0152,聯盟動物醫院(林口文化分院) 林口最美動物醫院 腫瘤專科 化療 安寧照護 健檢 預防針 一般犬貓內外科 中獸醫,OPERATIONAL,NTP017,24458台灣新北市林口區文化二路二段68號2樓,0277552055,63.0,1,4.9,366.0,2024-06-16,121.3780964,25.0802993,https://maps.google.com/?cid=1172658307243936888,https://vet.pet100pa.com/hospital_detail/%E6%9E%97%E5%8F%A3%E6%96%87%E5%8C%96%E5%88%86%E9%99%A2,ChIJEX755WanQjQReIwvdoQeRhA,
hp0153,奇奇動物醫院,OPERATIONAL,NTP017,244台灣新北市林口區文化三路一段437號,0226002216,55.91666666666667,1,4.3,130.0,2025-05-16,121.3677499,25.0744804,https://maps.google.com/?cid=5815470332906036098,,ChIJHbLIWtimQjQRgtuvwnSztFA,
hp0154,林口動物醫院,OPERATIONAL,NTP017,244台灣新北市林口區中正路496號1樓,0226018364,63.0,1,4.5,93.0,2023-11-21,121.3822251,25.077457,https://maps.google.com/?cid=17995741625280700619,,ChIJT5TGofqmQjQRyyCRpKm3vfk,
hp0155,上弦24小時動物醫院 - 新北 林口動物醫院推薦 專業寵物急診首選 夜間手術 急診動物醫院好評 一般內外科 家醫科 中獸醫與復健 內視鏡手術 高壓氧太空艙套裝療程 高功率四極體雷射療程 心臟門診 老年認知問題 臨終無痛諮詢,OPERATIONAL,NTP017,244台灣新北市林口區忠福路129號,0226090119,168.0,1,4.5,383.0,2025-06-30,121.3615519,25.0772016,https://maps.google.com/?cid=4071296230799599372,https://www.sensationah.com/,ChIJb6aXDcynQjQRDGcy7FkmgDg,
hp0156,仁喆動物醫院,OPERATIONAL,NTP017,244台灣新北市林口區仁愛路二段172號,0286012172,52.5,1,4.4,209.0,2025-02-27,121.3809864,25.0741845,https://maps.google.com/?cid=9204812903138279436,https://www.facebook.com/%E4%BB%81%E5%96%86%E5%8B%95%E7%89%A9%E9%86%AB%E9%99%A2-733830480026662/,ChIJd8MvBt6mQjQRDEB985AQvn8,
hp0157,麗園動物醫院,OPERATIONAL,NTP017,244台灣新北市林口區文化一路一段119號,0226000989,84.0,1,4.4,496.0,2025-08-13,121.3732084,25.0714059,https://maps.google.com/?cid=1113551298263195081,https://www.facebook.com/%E9%BA%97%E5%9C%92%E5%8B%95%E7%89%A9%E9%86%AB%E9%99%A2-131557673579749/,ChIJe4dCDiCnQjQRyR0nhAEhdA8,
hp0158,艾樂動物醫院,OPERATIONAL,NTP017,244015台灣新北市林口區文化三路一段103號,0226090138,54.0,1,4.8,140.0,2025-02-23,121.3612397,25.068149,https://maps.google.com/?cid=15106130023724038808,https://www.facebook.com/profile.php?id=100090716377135,ChIJfSDbZ2CnQjQRmDrvijjBo9E,
hp0159,寶護動物醫院,OPERATIONAL,NTP017,244台灣新北市林口區中山路281號,0286012219,43.0,1,4.7,81.0,2023-03-18,121.3846907,25.0797374,https://maps.google.com/?cid=4466517448921452226,http://powwho.pixnet.net/blog,ChIJg8StZe-mQjQRwg4MhvRB_D0,
hp0160,台大健弘動物醫院,OPERATIONAL,NTP017,244台灣新北市林口區民族路6號,0226003851,45.0,1,4.3,235.0,2023-04-28,121.3641027,25.0733655,https://maps.google.com/?cid=3299135662320092098,https://www.facebook.com/cherishandhealth/,ChIJkf3v3demQjQRwoNpwmfiyC0,
hp0161,太陽動物醫院- 林口優質動物醫院,OPERATIONAL,NTP017,24459台灣新北市林口區文化三路二段87號,0226069183,60.0,1,4.7,332.0,2024-05-02,121.3745155,25.0808425,https://maps.google.com/?cid=14866498133243737523,https://www.facebook.com/share/1GaS2AnNnZ/?mibextid=LQQJ4d,ChIJqcfDwIKnQjQRszUAPklpUM4,
hp0162,昇昇動物醫院,OPERATIONAL,NTP007,237台灣新北市樹林區,,0.0,1,0.0,0.0,,121.3811641,24.9502692,https://maps.google.com/?cid=6679705208919254216,,ChIJ2QucSXIcaDQRyGT1NX8Us1w,
hp0163,愛欣動物醫院,OPERATIONAL,NTP007,238台灣新北市樹林區樹德街5號,0226875556,66.0,1,3.6,321.0,2020-07-20,121.4228935,24.9913556,https://maps.google.com/?cid=6227248554835635511,,ChIJ3x5tHT4daDQRN-0KN5Gha1Y,
hp0164,展鵬獸醫院,OPERATIONAL,NTP007,23868台灣新北市樹林區中正路757號,0226880439,55.0,1,4.2,73.0,2023-05-02,121.4102725,25.0153296,https://maps.google.com/?cid=7557288610891932600,https://www.facebook.com/zanponvet/?pnref=lhc,ChIJQ-qDn3wdaDQRuKNRjfPh4Gg,
hp0165,山佳動物醫院,OPERATIONAL,NTP007,238台灣新北市樹林區中山路三段77號,0226687542,78.0,1,4.7,52.0,2024-09-07,121.4004782,24.9748652,https://maps.google.com/?cid=12777174168420703985,,ChIJY65nUf8caDQR8V4DtjWkUbE,
hp0166,慈輝動物醫院,OPERATIONAL,NTP007,238台灣新北市樹林區鎮前街144號,0226811198,66.0,1,3.8,52.0,2023-08-08,121.4245023,24.9906102,https://maps.google.com/?cid=3611585855387612060,,ChIJt6oTdD4daDQRnDM0UjPuHjI,
hp0167,台大上和動物醫院,OPERATIONAL,NTP004,23449台灣新北市永和區福和路75號,0289218859,64.0,1,4.3,286.0,2025-08-06,121.5226647,25.0078232,https://maps.google.com/?cid=7185863417382701164,https://lin.ee/m0xyNCSt,ChIJ3b289-6pQjQRbAiSrbRQuWM,
hp0168,皮皮動物醫院,OPERATIONAL,NTP004,234台灣新北市永和區保生路22巷12號,0282316021,31.0,1,4.4,140.0,2025-03-28,121.5075437,25.0081709,https://maps.google.com/?cid=7976502524980068161,,ChIJAZcx8Z2pQjQRQX9x_8g6sm4,
hp0169,D.I.N.G.O.寵物訓練教室,OPERATIONAL,NTP004,234台灣新北市永和區秀朗路二段120號,0229231101,0.0,1,4.6,43.0,2020-11-04,121.5245536,25.0015365,https://maps.google.com/?cid=17914129295862153383,https://www.instagram.com/dingotaiwan?igsh=MzRlODBiNWFlZA==,ChIJD6oTBempQjQRp0BIdK7Fm_g,
hp0170,全國動物醫院 永和分院,OPERATIONAL,NTP004,234台灣新北市永和區永貞路175號1樓,0289231148,64.5,1,4.2,233.0,2025-06-11,121.515248,25.003794,https://maps.google.com/?cid=11609219424623752414,http://www.vet.com.tw/store_detail.php?Key=5,ChIJE-lWmeepQjQR3nRD9I47HKE,
hp0171,成蹊動物醫院,OPERATIONAL,NTP004,234台灣永和區中正路474號,0286608594,36.0,1,4.6,297.0,2025-08-04,121.5175621,25.0033568,https://maps.google.com/?cid=8895644508483890444,,ChIJHXweUeapQjQRDC1WoIytc3s,
hp0172,唯光動物醫院,OPERATIONAL,NTP004,234台灣新北市永和區中正路714號,0229206600,63.0,1,4.8,627.0,2025-09-03,121.5159596,25.0100099,https://maps.google.com/?cid=4451448858794111827,https://www.facebook.com/weiguangvet/,ChIJHaIScoqpQjQRU7M9_Ca5xj0,
hp0173,銀晨寵物醫院(預約制),OPERATIONAL,NTP004,234台灣新北市永和區永平路286號,0232330187,69.0,1,5.0,16.0,2025-09-13,121.5077416,25.0120782,https://maps.google.com/?cid=12925759051341607419,,ChIJJReQ4cepQjQR-7GBo1-FYbM,
hp0174,延吉動物醫院,OPERATIONAL,NTP004,"號 234, No. 82永貞路永和區新北市台灣 234",0229201883,86.0,1,4.0,57.0,2020-11-24,121.5200751,25.0052242,https://maps.google.com/?cid=245870818735675006,,ChIJMSF1VO-pQjQRftZf-zSCaQM,
hp0175,瑪雅動物醫院,OPERATIONAL,NTP004,234台灣新北市永和區中和路333號,0289211948,63.0,1,4.3,303.0,2025-08-18,121.5073218,24.9998092,https://maps.google.com/?cid=4353058950248565859,,ChIJQ8RqeDupQjQRY4zmPw0saTw,
hp0176,中盟動物醫院 /附設動物復健中心 /中西獸醫整合醫療,OPERATIONAL,NTP004,234台灣新北市永和區中正路113號,0229410466,54.0,1,3.9,138.0,2025-05-05,121.5155582,24.9976253,https://maps.google.com/?cid=7473426522366785719,,ChIJUxpbZ-CpQjQRt7ingNPxtmc,
hp0177,康展動物醫院,OPERATIONAL,NTP004,234台灣新北市永和區福和路316-1號,0229295098,65.5,1,4.7,33.0,2025-05-26,121.5158562,25.0073434,https://maps.google.com/?cid=2518224784996098580,https://www.facebook.com/share/1EDbVmxkku/?mibextid=wwXIfr,ChIJV5mZfQCpQjQRFOJGjhmI8iI,
hp0178,慶生動物醫院,OPERATIONAL,NTP004,234台灣新北市永和區得和路261號,0229231301,48.0,1,4.3,110.0,2025-03-01,121.5213528,25.0000951,https://maps.google.com/?cid=7580326791976278817,https://www.facebook.com/QingShengDongWuYiYuan/,ChIJVVVVVeSpQjQRIVsfFQ67Mmk,
hp0179,豆皮動物醫院-深夜門診|寵物洗牙|絕育結紮推薦|外科手術|腸胃道異物|內視鏡|腫瘤門診|骨科,OPERATIONAL,NTP004,234045台灣新北市永和區中正路279號,0282317050,80.5,1,4.7,584.0,2025-09-27,121.5175748,25.0010587,https://maps.google.com/?cid=10611723909352661123,https://peace-vet.com/,ChIJY8mOQwapQjQRgyB8F6xqRJM,
hp0180,樂活動物醫院,OPERATIONAL,NTP004,234台灣新北市永和區竹林路66巷21號,0229225805,40.16666666666667,1,4.5,113.0,2024-12-02,121.5176448,25.0130652,https://maps.google.com/?cid=6660989296698281793,https://www.facebook.com/pages/%E6%A8%82%E6%B4%BB%E5%8B%95%E7%89%A9%E9%86%AB%E9%99%A2/149318455103123,ChIJaaMtv-upQjQRQU9hUnmWcFw,
hp0181,頂點動物醫院（無急診/初診僅開放現場掛號）,OPERATIONAL,NTP004,234台灣新北市永和區仁愛路87號,0289211700,48.0,1,4.6,244.0,2025-09-18,121.5131061,25.0131367,https://maps.google.com/?cid=17914494944415267363,https://www.topvet.com.tw/aboutus.html,ChIJhx2SMN6pQjQRIzpnpDwSnfg,
hp0182,星安動物醫院,OPERATIONAL,NTP004,234台灣新北市永和區環河東路一段80號1樓,0289210175,40.0,1,5.0,7.0,2025-04-26,121.5195536,25.0163569,https://maps.google.com/?cid=10400992248509630409,https://lin.ee/KHnbcS7,ChIJlWMaobqpQjQRyQcC3Fe_V5A,
hp0183,心恩動物醫院,OPERATIONAL,NTP004,234台灣新北市永和區竹林路150號,0232335195,70.0,1,4.3,134.0,2025-08-04,121.5200832,25.0106967,https://maps.google.com/?cid=18234091829153062812,,ChIJmQIqfgCpQjQRnF-FBumBDP0,
hp0184,雙和動物醫院,OPERATIONAL,NTP004,234台灣新北市永和區中正路621號,0229466633,60.0,1,2.9,122.0,2025-06-07,121.5159874,25.0097903,https://maps.google.com/?cid=227146146108104453,https://www.facebook.com/194156227302775,ChIJncJzQuCpQjQRBV_fZjf8JgM,
hp0185,同安動物醫院,OPERATIONAL,NTP004,234台灣新北市永和區中山路一段233號,0232334027,61.5,1,4.4,108.0,2020-01-03,121.5078449,25.0076241,https://maps.google.com/?cid=17844656151934868760,,ChIJo6q-U9upQjQRGB0Rozn0pPc,
hp0186,泰安動物醫院,OPERATIONAL,NTP004,234台灣新北市永和區永貞路83號,0229287877,51.5,1,4.5,33.0,2019-11-05,121.5185302,25.0042869,https://maps.google.com/?cid=1838313572628948553,,ChIJs5vkFeapQjQRSeZTWnQAgxk,
hp0187,吉利家畜醫院,OPERATIONAL,NTP004,234台灣永和區永貞路108號,0229280986,63.0,1,4.7,87.0,2025-03-08,121.519005,25.004565,https://maps.google.com/?cid=726356386980737474,,ChIJuQ-EGuapQjQRwrFSGkmJFAo,
hp0188,眾新動物醫院,OPERATIONAL,NTP011,221台灣新北市汐止區新興路4號,0226431960,85.0,1,4.6,675.0,2025-07-25,121.6561575,25.0649937,https://maps.google.com/?cid=15724908619418941888,https://www.facebook.com/a0226431960/,ChIJCevKj2tTXTQRwLnxQRMZOto,
hp0189,新北動物醫院,OPERATIONAL,NTP011,221台灣新北市汐止区大同路二段456號1樓,0226487669,65.0,1,4.5,831.0,2025-06-19,121.6601787,25.0672547,https://maps.google.com/?cid=13121069567415649277,https://zh-tw.facebook.com/pages/%E6%96%B0%E5%8C%97%E5%8B%95%E7%89%A9%E9%86%AB%E9%99%A2/358181870869587,ChIJGzEXzGxTXTQR_YP_zkBnF7Y,
hp0190,尚虹動物醫院,OPERATIONAL,NTP011,221台灣新北市汐止區康寧街455號,0286934743,0.0,1,4.0,18.0,2023-07-08,121.6315042,25.0683162,https://maps.google.com/?cid=10187036992721610340,,ChIJJblOfExTXTQRZGbv8CugX40,
hp0191,猩猩狐狸動物醫院《專業獸醫》寵物內視鏡外科｜牙科根管治療｜行為門診｜中獸醫門診｜皮膚過敏｜腫瘤門診,OPERATIONAL,NTP011,221台灣新北市汐止區仁愛路319號,0277515773,61.0,1,4.6,321.0,2025-09-21,121.6644649,25.0676524,https://maps.google.com/?cid=3829845857187695945,https://www.facebook.com/gorillafox/,ChIJMxIjPQ1TXTQRSY0sBoRYJjU,
hp0192,智遇動物醫院(眼科專科門診)營業時間請參見FB,OPERATIONAL,NTP011,221台灣新北市汐止區明峰街39號,0226955119,43.0,1,4.1,227.0,2025-09-20,121.6336771,25.0713322,https://maps.google.com/?cid=10680387247182918205,,ChIJOSyGK0pTXTQRPTLzO51bOJQ,
hp0193,宏昕動物醫院,OPERATIONAL,NTP011,221台灣新北市汐止區明峰街129號,0226923288,56.0,1,3.8,37.0,2023-01-15,121.6303651,25.0709009,https://maps.google.com/?cid=12009669838943652990,,ChIJZw3IEUtTXTQRfoz1qxbrqqY,
hp0194,好悠動物醫院,OPERATIONAL,NTP011,221台灣新北市汐止區大同路二段247號1樓,0226422280,59.5,1,4.7,243.0,2025-07-27,121.6534984,25.0654653,https://maps.google.com/?cid=2289513744366711840,,ChIJd-PVQlFTXTQRIDRawZ78xR8,
hp0195,貝斯特動物醫院/獸醫/汐止,OPERATIONAL,NTP011,221台灣新北市汐止區新台五路二段28號,0286923655,35.0,1,4.3,247.0,2024-06-13,121.6608105,25.0651769,https://maps.google.com/?cid=13966610066543306049,https://m.facebook.com/bestlovepet/,ChIJebVq8PPQDRQRQWW1dNtd08E,
hp0196,范獸醫,OPERATIONAL,NTP011,221台灣新北市汐止區大同路二段518號,0226413276,0.0,1,5.0,10.0,2020-12-18,121.66119,25.068327,https://maps.google.com/?cid=9884421272797566085,,ChIJmx-YvxJTXTQRhdRpF8eELIk,
hp0197,台大開心動物醫院,OPERATIONAL,NTP016,243台灣新北市泰山區明志路一段317號,0222965821,66.0,1,4.6,354.0,2025-10-01,121.4315679,25.0590993,https://maps.google.com/?cid=16917614489826127537,,ChIJDZBC4DKmQjQRsW4Wwb5wx-o,
hp0198,泰林動物醫院,OPERATIONAL,NTP016,243台灣新北市泰山區楓江路21號,0229090833,54.0,1,4.8,221.0,2025-03-21,121.4340574,25.0625213,https://maps.google.com/?cid=3921725969219314860,,ChIJS7MdEjKmQjQRrOS9pf3EbDY,
hp0199,福泰動物醫院,OPERATIONAL,NTP016,243台灣新北市泰山區福興街26號1樓,0935210936,50.0,1,5.0,11.0,2025-04-05,121.4344536,25.0576159,https://maps.google.com/?cid=3305215754621953423,,ChIJ_4Xnl1GnQjQRjyVEkDd83i0,
hp0200,淡水動物醫院,OPERATIONAL,NTP010,251台灣新北市淡水區中山路159-2號,0226217987,71.5,1,4.3,339.0,2025-08-05,121.4406457,25.1732243,https://maps.google.com/?cid=7758760452363982024,,ChIJ0xacT1elQjQRyBSBFIanrGs,
hp0201,芯安動物醫院,OPERATIONAL,NTP010,"1樓, No. 33之7號民族路淡水區新北市台灣 251",0228086596,38.0,1,4.8,199.0,2024-02-08,121.463295,25.1356229,https://maps.google.com/?cid=12819678659613043873,,ChIJ6bp1BZ6vQjQRoSzkwNGl6LE,
hp0202,上哲動物醫院（約診制）,OPERATIONAL,NTP010,251台灣新北市淡水区中正东路一段3巷2號1樓,0226225750,75.0,1,4.3,287.0,2019-02-02,121.4507148,25.1646782,https://maps.google.com/?cid=12104951609535716085,https://www.facebook.com/shangzheahvet/,ChIJ9ZHATfavQjQR9VqrpVpt_ac,
hp0203,維康動物診所,OPERATIONAL,NTP010,251台灣新北市淡水區新春街85巷8號,0226283506,42.0,1,4.1,100.0,2022-05-19,121.4388798,25.1826947,https://maps.google.com/?cid=11666408907505278275,https://www.facebook.com/%E6%B7%A1%E6%B0%B4%E7%B6%AD%E5%BA%B7%E5%8B%95%E7%89%A9%E8%A8%BA%E6%89%80-127918627283076/,ChIJB5JVdlWlQjQRQx1OEBdp56E,
hp0204,德艾動物醫院,OPERATIONAL,NTP010,251台灣新北市淡水區民生路8號,0228085190,57.5,1,4.5,161.0,2021-12-11,121.4607814,25.1377946,https://maps.google.com/?cid=2573038357688757087,https://m.facebook.com/pages/category/Veterinarian/%E6%B7%A1%E6%B0%B4%E7%AB%B9%E5%9C%8D%E5%BE%B7%E8%89%BE%E5%8B%95%E7%89%A9%E9%86%AB%E9%99%A2-222495355327801/,ChIJE99SsJ2vQjQRXyt-98BEtSM,
hp0205,慕光動物醫院 (預約制),OPERATIONAL,NTP010,251台灣新北市淡水區中山北路一段174號,0226269575,54.0,1,4.7,200.0,2023-05-09,121.4446567,25.1786401,https://maps.google.com/?cid=12404378361354060396,https://www.facebook.com/profile.php?id=100090175515827&mibextid=LQQJ4d,ChIJYymd6DalQjQRbAINAGY0Jaw,
hp0206,四季動物醫院(約診制),OPERATIONAL,NTP010,251台灣新北市淡水區民族路33巷16-19號,0228099591,0.0,1,4.6,260.0,2025-01-30,121.462755,25.1358335,https://maps.google.com/?cid=14063456882329639565,,ChIJZz9ABp6vQjQRjdpH6YVvK8M,
hp0207,卡朵動物醫院（預約制，請先來電或以官方Line詢問和安排預約）,OPERATIONAL,NTP010,251台灣新北市淡水區中正路二段12號,0266058166,42.5,1,4.5,252.0,2025-08-05,121.4208018,25.1807102,https://maps.google.com/?cid=7077843684153755654,https://m.facebook.com/cuddle.vet.taiwan/,ChIJdSl_fTKlQjQRBgi6qVSNOWI,
hp0208,錫安動物醫院,OPERATIONAL,NTP010,251台灣新北市淡水區新市一路三段180號,0226210052,54.0,1,4.1,151.0,2022-10-21,121.4482573,25.1828119,https://maps.google.com/?cid=14431896939289598297,,ChIJj9H73-qpQjQRWVlnhc1lSMg,
hp0209,聖愛犬貓專科醫院,OPERATIONAL,NTP010,251台灣新北市淡水區中正東路6號,0226223824,37.5,1,4.7,119.0,2025-07-22,121.4473805,25.1669398,https://maps.google.com/?cid=15764550299302928974,,ChIJjSsr1wGvQjQRTqK6Gfnuxto,
hp0210,達達動物醫院(約診制),OPERATIONAL,NTP010,251台灣新北市淡水區中山北路一段207巷37弄7號,0226268818,40.0,1,4.7,576.0,2024-12-07,121.4430166,25.1791308,https://maps.google.com/?cid=12046837612346920624,https://www.facebook.com/dadathevet/?fref=ts,ChIJnU3NrVWlQjQRsM7ARvv2Lqc,
hp0211,小小尾巴動物醫院,OPERATIONAL,NTP010,251台灣新北市淡水區新市三路二段265號,0226252205,63.0,1,4.4,150.0,2025-09-28,121.4378146,25.1958527,https://maps.google.com/?cid=11606197175304140805,,ChIJq1kXVXu7QjQRBTgls9Z-EaE,
hp0212,愛馨動物醫院,OPERATIONAL,NTP012,224台灣新北市瑞芳區一坑路32之3號1樓,0224978928,37.0,1,4.4,133.0,2021-04-01,121.8039214,25.109154,https://maps.google.com/?cid=11475332120870835565,,ChIJ3cHdlfdPXTQRbdUi2MORQJ8,
hp0213,蘆洲動物醫院,OPERATIONAL,NTP014,247台灣新北市蘆洲區中山二路8號1樓,0222859117,59.0,1,3.8,66.0,2024-04-19,121.4754681,25.081903,https://maps.google.com/?cid=16098105542680498676,,ChIJ-SQ6E9epQjQR9NE3HLP1Z98,
hp0214,雅旺動物醫院,OPERATIONAL,NTP014,247台灣新北市蘆洲區民族路522號,0228480148,45.0,1,4.6,307.0,2023-11-24,121.4689546,25.0899483,https://maps.google.com/?cid=10812560714955368534,,ChIJDRpYosqoQjQRVihCz67uDZY,
hp0215,胖皮動物醫院,OPERATIONAL,NTP014,247台灣新北市蘆洲區復興路174號,0282854848,42.0,1,4.4,96.0,2025-03-05,121.477769,25.088374,https://maps.google.com/?cid=15049041721267435183,,ChIJDXXUOs2oQjQRr7YtVrbv2NA,
hp0216,信安家畜醫院,OPERATIONAL,NTP014,247台灣蘆洲區中正路142號,0228479181,69.0,1,4.8,42.0,2025-04-30,121.469071,25.0853009,https://maps.google.com/?cid=10332564830017479811,,ChIJDfvF-smoQjQRg-Ti9_ekZI8,
hp0217,"東憲動物醫院(預約制)-牙科, 骨科, 眼科, 腫瘤科, 心臟科, 專業麻醉, 一般內外科",OPERATIONAL,NTP014,247台灣新北市蘆洲區長樂路36號1樓,0282860264,66.5,1,4.6,241.0,2024-11-03,121.4634832,25.0857139,https://maps.google.com/?cid=11119120318700585403,,ChIJGRv28kypQjQRuwH6qgQNT5o,
hp0218,伊娃動物醫院,OPERATIONAL,NTP014,247台灣新北市蘆洲區長榮路649號,0222850288,66.0,1,3.7,67.0,2022-04-23,121.4597893,25.0909809,https://maps.google.com/?cid=5478116105363730907,,ChIJGfhu_rKoQjQR2zGN0pItBkw,
hp0219,德興動物醫院,OPERATIONAL,NTP014,247台灣新北市蘆洲區長安街62號,0228480240,61.5,1,4.2,164.0,2025-04-15,121.46295,25.079946,https://maps.google.com/?cid=8877649687110293522,,ChIJLa5NhrmoQjQREhiRyFq_M3s,
hp0220,佑欣動物醫院,OPERATIONAL,NTP014,247台灣新北市蘆洲區光榮路66巷1號,0282831299,52.0,1,4.5,134.0,2021-02-07,121.4632666,25.088445,https://maps.google.com/?cid=3563420598185924136,,ChIJMZlTC7SoQjQRKJYufCfQczE,
hp0221,忠正動物醫院,OPERATIONAL,NTP014,247台灣新北市蘆洲區中正路277號,0228489283,33.0,1,4.6,36.0,2024-06-11,121.4669454,25.0877124,https://maps.google.com/?cid=14450488896069414718,,ChIJR_5wwLWoQjQRPq_xyBZzisg,
hp0222,星宇動物醫院-蘆洲區動物醫院推薦|內視鏡動物醫院|寵物健康諮詢|寵物生病|寵物醫院|獸醫推薦,OPERATIONAL,NTP014,247台灣新北市蘆洲區長榮路256號,0282860066,53.5,1,4.7,470.0,2025-02-16,121.4606189,25.0859792,https://maps.google.com/?cid=12948160432211854772,https://www.facebook.com/uvh2021,ChIJS6kqHWipQjQRtIXBkE8bsbM,
hp0223,布魯斯動物醫院,OPERATIONAL,NTP014,24747台灣新北市蘆洲區重陽街68號1樓,0282858600,46.0,1,4.4,83.0,2024-12-16,121.4819267,25.0840881,https://maps.google.com/?cid=6966428670824207799,https://www.facebook.com/BruceAnimalHospital/,ChIJX8cWOdKoQjQRt9WSZfe5rWA,
hp0224,宜蘭動物醫院,OPERATIONAL,NTP027,260台灣宜蘭縣宜蘭市宜興路一段15號,039324774,40.5,1,4.4,186.0,2022-11-17,121.7548344,24.7485851,https://maps.google.com/?cid=2457695748746339066,http://www.facebook.com/201553626588619,ChIJC94tEd3kZzQR-mIDFkN9GyI,
hp0225,鶯歌奇緣動物醫院,OPERATIONAL,NTP008,239台灣新北市鶯歌區忠孝街8號,0226792243,63.0,1,4.2,247.0,2025-03-19,121.3549733,24.9563888,https://maps.google.com/?cid=17547277052833152074,,ChIJLzK-FVUZaDQRSrx7lYJzhPM,
hp0226,鶯歌獸醫院,OPERATIONAL,NTP008,239台灣新北市鶯歌區文化路383號,0226782718,72.0,1,4.2,101.0,2019-03-31,121.3524544,24.9506688,https://maps.google.com/?cid=2780324420614661876,,ChIJrab-8qoeaDQR9KYUa1SylSY,
hp0227,曼巴動物醫院-中壢動物醫院 | 寵物健檢 | 牙科 | 洗牙 | 眼科 | 犬貓心臟科 | 超音波 | 獸醫推薦,OPERATIONAL,TYN002,320台灣桃園市中壢區元化路73號,034223345,51.0,1,4.8,479.0,2024-05-19,121.2280945,24.9578516,https://maps.google.com/?cid=7286523183643436537,https://www.facebook.com/%E6%9B%BC%E5%B7%B4%E5%8B%95%E7%89%A9%E9%86%AB%E9%99%A2-107916765172550,ChIJ3QKgm_QjaDQR-SW32DruHmU,
hp0228,順鴻寵物坊,OPERATIONAL,TYN002,320台灣桃園市中壢區中正路四段38號,034983635,0.0,1,4.0,12.0,2023-09-26,121.181481,24.9882925,https://maps.google.com/?cid=10695851825559716088,,ChIJ4R9iWP0jaDQR-ECz-JBMb5Q,
hp0229,中壢青青動物醫院（21:00後急診請先電聯，僅有一位醫生，未接代表當下手術或急救無法接診，敬請見諒）,OPERATIONAL,TYN002,320台灣桃園市中壢區永能路35號,032872330,91.0,1,4.7,835.0,2025-03-20,121.2033867,25.0068795,https://maps.google.com/?cid=3341432938269634093,https://www.facebook.com/%E4%B8%AD%E5%A3%A2%E9%9D%92%E9%9D%92%E5%8B%95%E7%89%A9%E9%86%AB%E9%99%A2-637744260017107/,ChIJ4ylmD9AhaDQRLe5Zvo0nXy4,
hp0230,振愛動物醫院,OPERATIONAL,TYN002,320台灣桃園市中壢區龍東路188號,034652934,63.0,1,4.7,29.0,2019-10-29,121.2530403,24.9296376,https://maps.google.com/?cid=18111057182185687845,https://m.facebook.com/pages/%E6%8C%AF%E6%84%9B%E5%8B%95%E7%89%A9%E9%86%AB%E9%99%A2/170340983032107,ChIJ5ZYLZn0iaDQRJQv3-oxmV_s,
hp0231,照群動物診所,OPERATIONAL,TYN002,320台灣桃園市中壢區興光路38號,0922712816,48.66666666666666,1,5.0,14.0,2025-01-04,121.2293009,24.9664373,https://maps.google.com/?cid=13479749190692095253,,ChIJ6z7JxQ8jaDQRFcWPXHiwEbs,
hp0232,中央動物醫院,OPERATIONAL,TYN002,320台灣桃園市中壢區中央西路二段84號,034953214,66.0,1,4.3,149.0,2024-01-09,121.216041,24.9585183,https://maps.google.com/?cid=6237498580915982611,,ChIJ7SLfWrUjaDQRExGAYukLkFY,
hp0233,呈品動物醫院,OPERATIONAL,TYN002,320台灣桃園市中壢區中豐路359號,032806070,47.5,1,4.7,175.0,2025-05-14,121.2191056,24.9560702,https://maps.google.com/?cid=16161224768242796781,https://www.facebook.com/ChampionSAL/,ChIJ7xhA-0oiaDQR7UhbBk00SOA,
hp0234,野森非犬貓專科醫院,OPERATIONAL,TYN002,320台灣桃園市中壢區民權路332號,034910302,59.5,1,4.6,310.0,2025-09-19,121.2176308,24.9630142,https://maps.google.com/?cid=11005435282613183744,https://www.facebook.com/%E9%87%8E%E6%A3%AE%E9%9D%9E%E7%8A%AC%E8%B2%93%E5%B0%88%E7%A7%91%E9%86%AB%E9%99%A2-108605991279342,ChIJ9y77H8UjaDQRAKW1ihQpu5g,
hp0235,耐斯動物醫院,OPERATIONAL,TYN002,320台灣桃園市中壢區環中東路189-1號,034335966,66.0,1,4.6,61.0,2023-04-13,121.258089,24.9640718,https://maps.google.com/?cid=14337201500408749565,,ChIJCRFPmAYiaDQR_Z0Pic3498Y,
hp0236,中原動物醫院,OPERATIONAL,TYN002,320台灣桃園市中壢區環北路447號,034512927,69.0,1,3.9,182.0,2021-11-12,121.2270379,24.9657469,https://maps.google.com/?cid=13926088540899976617,https://www.facebook.com/%E4%B8%AD%E5%8E%9F%E5%8B%95%E7%89%A9%E9%86%AB%E9%99%A2-517287678407117/,ChIJFYA3FDAiaDQRqSX7jr5nQ8E,
hp0237,白毛動物醫院,OPERATIONAL,TYN002,320台灣桃園市中壢區青商路143號,032876687,66.0,1,4.8,220.0,2024-09-01,121.2183655,25.0072223,https://maps.google.com/?cid=16274772324360899218,https://www.facebook.com/whanimal,ChIJIyZp0T8haDQRksrjmTOb2-E,
hp0238,吉莉安動物醫院暨癌症重症診斷治療中心,OPERATIONAL,TYN002,320台灣桃園市中壢區松義三街142號,034631281,25.0,1,4.2,58.0,2024-10-30,121.1674123,24.9590063,https://maps.google.com/?cid=10146599559653225036,,ChIJMcaU9oMhaDQRTPJDX4r2z4w,
hp0239,友信動物醫院,OPERATIONAL,TYN002,320台灣桃園市中壢區廣安街10號,032804527,45.0,1,4.6,345.0,2025-02-22,121.2236597,24.9580423,https://maps.google.com/?cid=9573253257086478713,https://www.facebook.com/pg/friendlytrust4527/%20community/,ChIJNa0wFzYiaDQReal9tR0H24Q,
hp0240,磨鼻子動物醫院《24小時住院照護》中壢獸醫急診｜寵物心臟科｜牙科｜眼科｜皮膚科｜腫瘤科｜骨科｜外科手術,OPERATIONAL,TYN002,320台灣桃園市中壢區延平路20號,034535745,119.0,1,4.2,525.0,2025-07-13,121.2331276,24.9638066,https://maps.google.com/?cid=14323447544873074729,https://www.bisousah.com.tw/,ChIJQbMhOVojaDQRKcAZN6cbx8Y,
hp0241,安泰動物醫院,OPERATIONAL,TYN002,320台灣桃園市中壢區中正路628號,034914162,66.0,1,2.8,40.0,2020-08-10,121.2109398,24.9599955,https://maps.google.com/?cid=3354503557781375027,,ChIJWfDgALYjaDQRM8hXfzaXjS4,
hp0242,足跡動物醫院 - 中壢犬貓專科醫院 預約優先制 21:00-00:00提供夜間一般門診,OPERATIONAL,TYN002,320台灣桃園市中壢區民權路320號,034010080,60.0,1,4.8,54.0,2025-07-06,121.2176714,24.9626661,https://maps.google.com/?cid=17593206378811008269,https://www.footprintvet.com/,ChIJY-x4DgkjaDQRDaUqHf2fJ_Q,
hp0243,中泰動物醫院,OPERATIONAL,TYN002,320台灣桃園市中壢區中華路一段408號,034550405,72.0,1,4.5,121.0,2025-03-24,121.2548055,24.9717099,https://maps.google.com/?cid=3014753894680628653,,ChIJZZd-gvghaDQRrQ2qwbGO1ik,
hp0244,中信動物醫院,OPERATIONAL,TYN002,320台灣桃園市中壢區環中東路二段380號,034597245,48.0,1,4.7,469.0,2025-04-23,121.2338833,24.9476074,https://maps.google.com/?cid=1469269525576231148,,ChIJZciGd0QiaDQR7ChHV9nkYxQ,
hp0245,圓霖動物醫院-中原二館分院（看診最晚20:30前掛號）,OPERATIONAL,TYN002,320台灣桃園市中壢區中山東路二段16號,034653377,42.5,1,4.0,4.0,2023-06-21,121.2370258,24.9543502,https://maps.google.com/?cid=12741018826577729811,https://www.petsfamily.com.tw/page/yuanlin,ChIJ_2tTMQ0jaDQRE9m6Mh4x0bA,
hp0246,豐安獸醫院,OPERATIONAL,TYN002,320台灣桃園市中壢區中豐路16號,034225643,60.0,1,4.1,117.0,2024-11-12,121.2200506,24.9642997,https://maps.google.com/?cid=11736735491922504397,,ChIJ_3dcnDMiaDQRzarC-r5C4aI,
hp0247,恆星動物醫院,OPERATIONAL,TYN002,320台灣桃園市中壢區龍文街35巷2號,034561992,81.0,1,4.5,324.0,2025-10-16,121.2553854,24.9347947,https://maps.google.com/?cid=9258211912556177237,,ChIJaTLpx3siaDQRVWczr67Ge4A,
hp0248,康淇動物醫院,OPERATIONAL,TYN002,320台灣桃園市中壢區元化路二段50號,034278606,60.0,1,4.1,218.0,2022-07-30,121.2215505,24.9625872,https://maps.google.com/?cid=15713964925661687156,https://www.facebook.com/%E5%BA%B7%E6%B7%87%E5%8B%95%E7%89%A9%E9%86%AB%E9%99%A2-496334533712852,ChIJaUdgEjQiaDQRdC0D_9c3E9o,
hp0249,青谷動物醫院 - 24小時急診暨住院照護,OPERATIONAL,TYN002,320台灣桃園市中壢區洽溪路179號1樓,032877119,168.0,1,3.8,210.0,2025-10-11,121.2059987,25.0079339,https://maps.google.com/?cid=9462851869150335269,https://www.facebook.com/profile.php?id=100090944412623,ChIJb9xCVBohaDQRJdHYfqPNUoM,
hp0250,長生動物醫院,OPERATIONAL,TYN002,320台灣桃園市中壢區環中東路二段24號,034566941,63.0,1,4.4,326.0,2023-09-06,121.2397239,24.9512869,https://maps.google.com/?cid=17085585218846656837,,ChIJbxyBgWoiaDQRRQkFtTsxHO0,
hp0251,綠崧動物醫院,OPERATIONAL,TYN002,320台灣桃園市中壢區環中東路二段112號,034653266,42.5,1,4.6,140.0,2019-09-01,121.237948,24.9501153,https://maps.google.com/?cid=6834654257896848763,,ChIJcxwGlkEiaDQRe32NBNaR2V4,
hp0252,思邁爾動物醫院中壢分院,OPERATIONAL,TYN002,320台灣桃園市中壢區環北路562號,034351510,60.0,1,4.1,434.0,2023-10-22,121.228578,24.964547,https://maps.google.com/?cid=13959220988280378404,http://www.smileanimal.com/,ChIJd0iUgzoiaDQRJBShm4cducE,
hp0253,大桔動物醫院,OPERATIONAL,TYN002,320台灣桃園市中壢區莊敬路119號,034350198,71.0,1,4.8,152.0,2025-05-12,121.2574626,24.9696187,https://maps.google.com/?cid=9397384132614195157,https://www.facebook.com/profile.php?id=61554081450547&mibextid=LQQJ4d,ChIJd1l6iSYjaDQR1YdcQhQ3aoI,
hp0254,姆卡動物醫院（預約優先制）,OPERATIONAL,TYN002,320台灣桃園市中壢區龍慈路79號,034662332,57.0,1,5.0,109.0,2025-06-09,121.2475122,24.9432683,https://maps.google.com/?cid=16863492006614684652,https://www.facebook.com/profile.php?id=61566588933521,ChIJdQbVBgAjaDQR7FPoJqIoB-o,
hp0255,圓霖動物醫院-SOGO分院,OPERATIONAL,TYN002,320台灣桃園市中壢區新生路286號,034273222,54.0,1,5.0,13.0,2025-08-03,121.2232163,24.9638156,https://maps.google.com/?cid=10843985548870479107,https://www.petsfamily.com.tw/page/yuanlin,ChIJfZldWzEiaDQRA-3kHWeTfZY,
hp0256,諾亞動物醫院,OPERATIONAL,TYN002,320台灣桃園市中壢區中山東路一段35號,034264015,47.5,1,4.8,303.0,2025-09-24,121.229811,24.9560126,https://maps.google.com/?cid=16506757236924128802,,ChIJl1H1EEgiaDQRIp54HEDIE-U,
hp0257,恆生動物醫院,OPERATIONAL,TYN002,320台灣桃園市中壢區中美路一段13號,034251893,46.0,1,4.6,280.0,2025-04-09,121.2239149,24.9592582,https://maps.google.com/?cid=12332086969677971154,https://www.facebook.com/lfvethp/,ChIJtRDRZzYiaDQR0v7gvsJfJKs,
hp0258,聖仁動物醫院,OPERATIONAL,TYN002,320台灣桃園市中壢區忠孝路285號2 樓,034628655,55.5,1,4.5,635.0,2025-10-14,121.254013,24.9792455,https://maps.google.com/?cid=3904541667405000536,https://www.facebook.com/%E8%81%96%E4%BB%81%E5%8B%95%E7%89%A9%E9%86%AB%E9%99%A2-1185912064771989/,ChIJtVISq_shaDQRWO9imPW3LzY,
hp0259,領航動物醫院,OPERATIONAL,TYN002,320台灣桃園市中壢區領航南路一段168號觀音 大園 新屋 附近,034222068,53.0,1,4.6,83.0,2025-09-22,121.2060359,25.0005343,https://maps.google.com/?cid=8749858297190413207,https://www.facebook.com/VanguardAnimalHospital/,ChIJuxv_5QMhaDQRl_MJN8O9bXk,
hp0260,環東動物醫院,OPERATIONAL,TYN002,320台灣桃園市中壢區榮民路167號,034332339,91.0,1,3.3,104.0,2021-03-04,121.2609771,24.9664933,https://maps.google.com/?cid=5643740062005995197,,ChIJv2mJNAEiaDQRvSaCQK-XUk4,
hp0261,中興動物醫院-中獸醫（醫師不定期出診，看診前請電話預約）,OPERATIONAL,TYN002,320台灣桃園市中壢區民族路164號,034941312,53.0,1,4.5,162.0,2024-03-19,121.2110888,24.9562534,https://maps.google.com/?cid=10201473897449501535,,ChIJve9mmbYjaDQRX7PlwnXqko0,
hp0262,天一動物醫院 TianYi Animal Hospital,OPERATIONAL,TYN002,32068台灣桃園市中壢區中華路一段426號,034512480,63.5,1,4.2,364.0,2024-01-08,121.2545065,24.9714971,https://maps.google.com/?cid=16075624376422419626,https://zh-tw.facebook.com/TianYiAH/,ChIJxRWGeAIiaDQRqsxEszIXGN8,
hp0263,中山動物醫院,OPERATIONAL,TYN002,320台灣桃園市中壢區延平路583號,034260566,54.0,1,4.2,406.0,2025-04-01,121.2225675,24.954635,https://maps.google.com/?cid=4342787313805499832,https://www.facebook.com/%E4%B8%AD%E5%B1%B1%E5%8B%95%E7%89%A9%E9%86%AB%E9%99%A2-1610304549231889/,ChIJz1JcfkkiaDQRuB1zhg2uRDw,
hp0264,沃沃動物醫院-(預約優先制)-犬貓牙科/內科/外科手術/心臟科(不定期公休以門診表為主),OPERATIONAL,TYN008,334台灣桃園市八德區義勇街22號,032739932,51.0,1,4.7,68.0,2023-04-12,121.3014263,24.9639116,https://maps.google.com/?cid=304870634821173648,http://www.facebook.com/vovoah22/,ChIJ06bboP4faDQRkMH2IjoeOwQ,
hp0265,亞歐犬貓專科醫院-預約優先制（現場候診請於該門診時段來電詢問可否接診，避免白跑一趟）,OPERATIONAL,TYN008,334台灣桃園市八德區豐德二路78號,033681515,50.5,1,4.9,201.0,2025-09-07,121.2857708,24.9277156,https://maps.google.com/?cid=11364138097984779740,https://www.facebook.com/Vet.Yaho,ChIJD-7N_BYZaDQR3LXd7GOHtZ0,
hp0266,立仁動物醫院,OPERATIONAL,TYN008,334台灣桃園市八德區公園路30號,033620221,61.0,1,4.2,105.0,2023-01-31,121.2972469,24.9639961,https://maps.google.com/?cid=13420332581509605669,,ChIJEYDefi0faDQRJSl7AGGZPro,
hp0267,和平動物醫院,OPERATIONAL,TYN008,334台灣桃園市八德區介壽路二段113號,033635820,69.0,1,4.1,44.0,2025-02-17,121.2990977,24.9551576,https://maps.google.com/?cid=14803683247449688494,,ChIJHZr0j9EYaDQRrsmj83o_cc0,
hp0268,凱特貓專科診所,OPERATIONAL,TYN008,334台灣桃園市八德區和平路643-2號,032183833,42.0,1,4.7,26.0,2025-04-02,121.3154973,24.9567463,https://maps.google.com/?cid=7552327618364529821,,ChIJLTniNgkZaDQRnVz9d_RBz2g,
hp0269,仁愛動物醫院,OPERATIONAL,TYN008,334台灣桃園市八德區介壽路二段1087號,033650149,80.0,1,4.5,239.0,2024-10-12,121.2977322,24.9336695,https://maps.google.com/?cid=6842415578271918310,,ChIJMfaN7eUYaDQR5ih_PLck9V4,
hp0270,圓霖動物醫院-八德分院,OPERATIONAL,TYN008,334台灣桃園市八德區介壽路二段1072號,033656008,42.5,1,4.5,67.0,2023-03-06,121.2972027,24.9318749,https://maps.google.com/?cid=16586959118539765936,https://www.petsfamily.com.tw/page/yuanlin,ChIJTVZ1fOUYaDQRsDh91G-3MOY,
hp0271,丹尼爾動物醫院,OPERATIONAL,TYN008,334台灣桃園市八德區介壽路一段248-1號,033662215,44.5,1,4.6,176.0,2019-05-22,121.3016441,24.9719638,https://maps.google.com/?cid=15308779666133732428,https://m.facebook.com/danielanimalhospital,ChIJURiZ7iUfaDQRTMyfOP-1c9Q,
hp0272,人人動物醫院八德院 - 犬貓科/內科/軟組織外科/骨科/心臟科/腫瘤科/齒科/眼科,OPERATIONAL,TYN008,334台灣桃園市八德區介壽路二段296號,033661314,61.25,1,4.3,734.0,2025-07-26,121.2977856,24.949908,https://maps.google.com/?cid=9131319799194935042,https://www.facebook.com/profile.php?id=100054466749637&locale=zh_TW,ChIJYXczOywfaDQRAl-BQfr2uH4,
hp0273,維尼動物醫院,OPERATIONAL,TYN008,334台灣桃園市八德區介壽路二段1091號,033659250,70.0,1,4.5,256.0,2025-07-09,121.2976804,24.9335968,https://maps.google.com/?cid=15325927487581475448,https://www.facebook.com/people/%E7%B6%AD%E5%B0%BC%E5%8B%95%E7%89%A9%E9%86%AB%E9%99%A2/100063456087102/,ChIJZxbHCAEZaDQReFKwhtmhsNQ,
hp0274,社團法人桃園市野鳥學會(附設野生動物診所),OPERATIONAL,TYN008,334台灣桃園市八德區高城五街22巷5弄5號,033695685,48.0,1,4.6,98.0,2024-07-17,121.2770276,24.9777046,https://maps.google.com/?cid=13357673517959578680,http://taoyuanbird.org.tw/,ChIJcV3t9xAfaDQROISf50r9X7k,
hp0275,進安動物醫院｜寵物中醫專科,OPERATIONAL,TYN008,334台灣桃園市八德區介壽路二段274號,033642686,0.0,1,2.7,20.0,2021-03-23,121.2977951,24.9502901,https://maps.google.com/?cid=7654581287104588760,,ChIJj4k325cZaDQR2Ks4-h-JOmo,
hp0276,杏旺動物醫院,OPERATIONAL,TYN008,334台灣桃園市八德區介壽路一段731號,033779015,60.0,1,4.4,113.0,2025-10-03,121.3005811,24.9639385,https://maps.google.com/?cid=2620144446341642062,,ChIJr4fiTywfaDQRTvdn6H2fXCQ,
hp0277,人人動物醫院大園分院,OPERATIONAL,TYN006,337台灣桃園市大園區華興路21號一樓,032757757,48.0,1,4.2,179.0,2023-07-08,121.1933798,25.0645065,https://maps.google.com/?cid=18002827988807980987,https://www.facebook.com/%E4%BA%BA%E4%BA%BA%E5%8B%95%E7%89%A9%E9%86%AB%E9%99%A2%E5%A4%A7%E5%9C%92%E5%88%86%E9%99%A2-106390777936825,ChIJbfWimpAhaDQRuxdcOazk1vk,
hp0278,喵嶼貓醫院(預約制)-一個專屬貓咪看診的醫院-貓咪內外科，影像科，皮膚科-大園貓咪皮膚科|中壢獸醫推薦|專業動物醫院|青埔寵物醫院|貓咪生病|動物醫院評價,OPERATIONAL,TYN006,337051台灣桃園市大園區領航北路四段378號,033815413,50.0,1,4.8,202.0,2025-03-14,121.2219911,25.0225229,https://maps.google.com/?cid=10202008557308021045,https://www.facebook.com/meowmeowlandvet/,ChIJdTg2I9MhaDQRNQnX9brQlI0,
hp0279,桔加g+動物醫院,OPERATIONAL,TYN006,337台灣桃園市大園區致祥三街40號,032875751,60.0,1,4.9,82.0,2024-12-18,121.2115778,25.0079852,https://maps.google.com/?cid=353077118300366875,https://www.gplusah.com/news/index.php?group_id=8067&title_id=13970,ChIJrRDLKQAhaDQRG6ictsRh5gQ,
hp0280,麗園動物醫院-大園分院,OPERATIONAL,TYN006,337台灣桃園市大園區中正東路5號,033855577,63.0,1,4.4,316.0,2025-04-05,121.1977975,25.0641412,https://maps.google.com/?cid=2389596008671530776,https://www.facebook.com/DayuanVet,ChIJzys4M5kgaDQRGM-OxeiMKSE,
hp0281,威爾頓動物醫院,OPERATIONAL,TYN003,335台灣桃園市大溪區埔頂路二段62號,033805510,69.0,1,4.6,118.0,2024-05-22,121.2792271,24.9085384,https://maps.google.com/?cid=13586647398260402427,,ChIJC_PdRXEcaDQR--jL1dJ3jbw,
hp0282,聯眾動物醫院,OPERATIONAL,TYN003,335台灣大溪區文化路79號,033887799,66.0,1,4.2,49.0,2025-05-23,121.293393,24.881455,https://maps.google.com/?cid=5735685999165349101,,ChIJDfx_jSYYaDQR7Zxu-wZAmU8,
hp0283,仟祐動物醫院,OPERATIONAL,TYN003,335台灣桃園市大溪區介壽路796號,033804477,72.0,1,3.9,140.0,2022-12-02,121.2839014,24.9024705,https://maps.google.com/?cid=241730052110741589,,ChIJmRPCikIYaDQRVfCYnzPMWgM,
hp0284,佑安動物醫院,OPERATIONAL,TYN010,324台灣桃園市平鎮區民族路二段29號,034930603,52.0,1,4.1,172.0,2019-11-14,121.207734,24.957217,https://maps.google.com/?cid=11578110762068858159,,ChIJ-8oLGbcjaDQRL9U9B2W2raA,
hp0285,知心動物醫院 （需電話預約）,OPERATIONAL,TYN010,324台灣桃園市平鎮區中正五路156號,0981532228,30.0,1,5.0,8.0,2025-06-11,121.2554381,24.9294326,https://maps.google.com/?cid=11103358109987637222,,ChIJ-YnRDAAjaDQR5gfEd18NF5o,
hp0286,原野犬貓專科醫院,OPERATIONAL,TYN010,324台灣桃園市平鎮區廣德街15號,0987492020,64.75,1,4.8,97.0,2025-09-02,121.2050624,24.9565705,https://maps.google.com/?cid=12584522852082209991,http://wild-ah.com/,ChIJDaadMT8jaDQRx1Qluts0pa4,
hp0287,新興動物藥品,OPERATIONAL,TYN010,324台灣桃園市平鎮區延平路一段65號,034222594,74.5,1,4.3,168.0,2025-03-18,121.2198161,24.951702,https://maps.google.com/?cid=4296460702868776965,,ChIJJZD0YEwiaDQRBSjr4T4YoDs,
hp0288,冠友動物醫院,OPERATIONAL,TYN010,324台灣桃園市平鎮區中豐路南勢二段１５０號,034392983,60.0,1,4.2,257.0,2024-10-29,121.2105179,24.9156749,https://maps.google.com/?cid=8855454854485743558,,ChIJMW7E5yMjaDQRxpchnkXl5Ho,
hp0289,美生動物醫院,OPERATIONAL,TYN010,324台灣桃園市平鎮區環南路460之3號,034938523,77.0,1,4.4,160.0,2024-11-17,121.2068803,24.9466538,https://maps.google.com/?cid=12194134280208408094,,ChIJNSf3bK8jaDQRHl48Q4VEOqk,
hp0290,原野特殊寵物專科醫院,OPERATIONAL,TYN010,324台灣桃園市平鎮區廣德街12號,034942020,64.75,1,4.6,575.0,2025-07-27,121.2048637,24.9565681,https://maps.google.com/?cid=16987556995328038454,http://wild-ah.com/,ChIJOSSSnswjaDQRNtY6VBXtv-s,
hp0291,振生動物醫院,OPERATIONAL,TYN010,324台灣桃園市平鎮區金陵路109號,034594320,49.0,1,4.8,157.0,2025-09-28,121.2229213,24.9475362,https://maps.google.com/?cid=1231996419130715542,,ChIJPQSxCE4iaDQRlu3WPjfuGBE,
hp0292,抱一抱動物醫院,OPERATIONAL,TYN010,324台灣桃園市平鎮區文化街56號,034563933,54.0,1,4.8,33.0,2025-09-12,121.2029803,24.9550043,https://maps.google.com/?cid=15948974622631845316,https://lin.ee/XywKxsF,ChIJU4MBREAjaDQRxN2wAesjVt0,
hp0293,游動物醫院,OPERATIONAL,TYN010,324台灣桃园市平镇区中原路147號,034226466,47.333333333333336,1,4.7,164.0,2021-12-07,121.2185174,24.9516511,https://maps.google.com/?cid=10971915367647370834,,ChIJa2Sc8kwiaDQRUl5FKuUSRJg,
hp0294,人人動物醫院平鎮分院,OPERATIONAL,TYN010,324台灣桃園市平鎮區金陵路二段298號,034686811,66.5,1,4.3,856.0,2025-07-17,121.2246134,24.9365546,https://maps.google.com/?cid=9539513906490242276,https://www.facebook.com/profile.php?id=61556916541094&mibextid=kFxxJD,ChIJcad_XUUiaDQR5PQ__lopY4Q,
hp0295,大業動物醫院,OPERATIONAL,TYN010,324台灣桃園市平鎮區延平路二段294號,,0.0,1,5.0,2.0,2025-04-14,121.2087937,24.9457388,https://maps.google.com/?cid=5401601711646134856,,ChIJr24b264jaDQRSFLPSCNY9ko,
hp0296,延平動物診所,OPERATIONAL,TYN010,324台灣桃園市平鎮區南京路6號,034255488,60.0,1,4.5,75.0,2023-08-21,121.2103802,24.9164485,https://maps.google.com/?cid=2527124602238242550,https://www.yanping-animal.com.tw/home,ChIJvf8NwwgjaDQR9o6Pu28mEiM,
hp0297,恆心動物醫院,OPERATIONAL,TYN011,327台灣桃園市新屋區三民路585號,034871000,60.0,1,3.9,93.0,2025-08-22,121.0991828,24.972303,https://maps.google.com/?cid=9980659070411855836,https://www.facebook.com/profile.php?id=100083097410625,ChIJR2FP-v4laDQR3NctdItsgoo,
hp0298,毛茸茸動物醫院 (10月全部連假皆正常營業 犬貓內外科 預防針 健康檢查 結紮 洗牙 驅蟲除蚤藥品 附停車場),OPERATIONAL,TYN011,327台灣桃園市新屋區民族路六段17號,034200891,77.0,1,4.7,321.0,2025-07-04,121.1654079,24.9581192,https://maps.google.com/?cid=11483376213086749489,https://www.facebook.com/%E6%AF%9B%E8%8C%B8%E8%8C%B8%E5%8B%95%E7%89%A9%E9%86%AB%E9%99%A2-105831631819650,ChIJVdEqj9glaDQRMcM0A9MlXZ8,
hp0299,榮興獸醫院,OPERATIONAL,TYN011,327台灣桃園市新屋區四維街35號,034773992,52.0,1,3.8,125.0,2021-08-13,121.1019959,24.9722317,https://maps.google.com/?cid=10516390909419328792,,ChIJowSofqQlaDQRGBUWW9C58ZE,
hp0300,全日動物醫院24H/夜間急診暨住院照護-桃園/三峽/八德/龜山/蘆竹/鶯歌狗貓夜間急診|寵物夜間急診|24小時動物醫院|狗貓心臟病|狗貓腹膜透析|狗貓隔離病房|狗貓ICU|狗貓輸血,OPERATIONAL,TYN001,330台灣桃園市桃園區永安路765巷77號,032717530,168.0,1,4.7,118.0,2025-09-07,121.2899334,25.0062715,https://maps.google.com/?cid=5541695871372719005,https://www.facebook.com/profile.php?id=61565169941772&mibextid=LQQJ4d,ChIJ-b1WzEUfaDQRnXNrqggP6Ew,
hp0301,圓霖動物醫院-中正分院,OPERATIONAL,TYN001,330台灣桃園市桃園區中正路836號,033177608,84.0,1,3.5,44.0,2021-07-18,121.3017007,25.0100205,https://maps.google.com/?cid=8154851959803269733,https://www.petsfamily.com.tw/page/yuanlin,ChIJ0wQNny4faDQRZdL4s6baK3E,
hp0302,麻吉動物醫院-桃園獸醫院/寵物醫院 中醫針灸/骨科/心臟專科/一般內外科/眼科 牙科/齒科 犬貓絕育/結紮 ICU住院照護/重症術後 超音波/X光/血檢/健康檢查/預防針 推薦,OPERATIONAL,TYN001,330台灣桃園市桃園區中山北路195號,033333314,77.0,1,4.7,129.0,2025-10-24,121.3029173,24.9971336,https://maps.google.com/?cid=987897688796895196,https://www.facebook.com/majivets/,ChIJ3RGOTgMfaDQR3Bcrv7a3tQ0,
hp0303,大安動物醫院 l Dawn Animal Hospital,OPERATIONAL,TYN001,330台灣桃園市桃園區三民路一段24號,033335025,59.0,1,4.4,243.0,2025-05-30,121.3226652,24.9969014,https://maps.google.com/?cid=16767736688983330751,https://dawnvettw.wixsite.com/dawnah,ChIJ4WJPNfYeaDQRv88i6q33sug,
hp0304,禾原動物醫院,OPERATIONAL,TYN001,330台灣桃園市桃園區大有路159號,033321695,54.0,1,4.4,98.0,2025-01-16,121.3208318,25.006884,https://maps.google.com/?cid=12341208536557828625,,ChIJ53xej1oeaDQRETqMCMfHRKs,
hp0305,廣喬動物醫院,OPERATIONAL,TYN001,330台灣桃園市桃園區大興西路二段261號1樓,033411700,36.66666666666666,1,4.8,590.0,2025-06-19,121.2940768,25.0080957,https://maps.google.com/?cid=7607196639792721355,https://m.facebook.com/tw.a2pet/?locale2=zh_HK,ChIJ5yZo76UfaDQRy-1jCwoxkmk,
hp0306,普羅動物醫院,OPERATIONAL,TYN001,330台灣桃園市桃園區泰成路15號,033789900,48.0,1,4.4,908.0,2025-05-17,121.2988655,24.9911507,https://maps.google.com/?cid=1808845492460893964,https://www.facebook.com/provet99/,ChIJ6RHMhBQfaDQRDLeyR2RPGhk,
hp0307,桃鶯動物醫院,OPERATIONAL,TYN001,330台灣桃園市桃園區桃鶯路67號,0955179365,69.0,1,3.4,35.0,2025-08-02,121.3180541,24.9883419,https://maps.google.com/?cid=5912814731191442327,,ChIJ7XNwPuUeaDQRl9tcq6uJDlI,
hp0308,青山動物醫院,OPERATIONAL,TYN001,330台灣台灣省桃園區桃園市春日路229號,033333600,54.0,1,4.8,86.0,2024-07-29,121.3151793,24.9973265,https://maps.google.com/?cid=6957574892273424263,,ChIJAQAs2fgeaDQRh1cicIBFjmA,
hp0309,萌萌家動物醫院,OPERATIONAL,TYN001,330台灣桃園市桃園區民安路100-2號,033365951,50.0,1,4.5,96.0,2023-12-28,121.2997851,24.9964665,https://maps.google.com/?cid=7557361629868576841,https://m.facebook.com/MengMenghomeAH/,ChIJAS0Qkf8eaDQRSdB7m1wk4Wg,
hp0310,卡布動物醫院,OPERATIONAL,TYN001,330台灣桃園市桃園區文中二路121號1樓,033695005,72.0,1,4.8,146.0,2022-03-31,121.2896407,24.9989432,https://maps.google.com/?cid=7887012786634878957,https://www.facebook.com/KabuAnimalHospital,ChIJAVtpf04haDQR7e9VnldMdG0,
hp0311,大禾動物醫院,OPERATIONAL,TYN001,330台灣桃園市桃園區建國路218號,033625122,72.0,1,4.6,181.0,2025-05-10,121.307944,24.9852779,https://maps.google.com/?cid=8593935759206458734,,ChIJE2aUBh4faDQRbiUHVgrLQ3c,
hp0312,惟心動物醫院,OPERATIONAL,TYN001,330台灣桃園市桃園區大興路207號,033259001,51.0,1,4.4,210.0,2020-12-04,121.3125291,25.0157796,https://maps.google.com/?cid=14729206211288737579,http://wecareamc.com/,ChIJF64lckweaDQRK6dXrwKnaMw,
hp0313,新生動物醫院,OPERATIONAL,TYN001,330台灣桃園市桃園區德豐街32號,033631212,72.0,1,4.6,92.0,2025-08-20,121.310754,24.9834871,https://maps.google.com/?cid=5088192401105692166,,ChIJFTJhouEeaDQRBia_yAfknEY,
hp0314,好年動物醫院｜預約優先制｜可能會提前停掛或臨時休息｜十月週末看診日期為 10/4(六)、10/12(日),OPERATIONAL,TYN001,330台灣桃園市桃園區春日路1115號,033461115,54.0,1,4.9,68.0,2025-03-16,121.309136,25.0134709,https://maps.google.com/?cid=2180262761675022617,https://www.facebook.com/honiah2024,ChIJG4XbJ7cfaDQRGeGmIm7ZQR4,
hp0315,安可動物醫院｜桃園獸醫｜腫瘤科｜心臟科｜骨科｜牙科｜眼科｜內外科-桃園動物醫院推薦|動物醫院心臟病|動物醫院腫瘤|動物醫院牙科|動物醫院健檢推薦|動物醫院專科,OPERATIONAL,TYN001,330台灣桃園市桃園區中埔一街21號1樓,033015232,56.0,1,4.7,158.0,2025-09-20,121.2965609,25.0115729,https://maps.google.com/?cid=6334569758250068536,http://www.anchor-animal-hospital.tw/,ChIJGZFVRrAfaDQROGptFaLp6Fc,
hp0316,寶建動物醫院,OPERATIONAL,TYN001,330台灣桃園市桃園區成功路二段80號,033333166,52.5,1,4.8,118.0,2024-01-21,121.3161113,24.9937913,https://maps.google.com/?cid=1417017786536072635,,ChIJHZKtNuUeaDQRu5XkTitCqhM,
hp0317,吉布動物醫院,OPERATIONAL,TYN001,330台灣桃園市桃園區新埔七街134號,033585664,52.0,1,4.8,22.0,2025-06-25,121.30097,25.0212499,https://maps.google.com/?cid=5117795386409432222,,ChIJK0xWmekfaDQRnjQR6MkPBkc,
hp0318,幸福動物醫院,OPERATIONAL,TYN001,330台灣桃園市桃園區大業路二段243號,033161245,72.0,1,4.7,141.0,2023-01-05,121.3100436,25.0210396,https://maps.google.com/?cid=2500279292753065177,,ChIJKZbklEoeaDQR2bTPC8XGsiI,
hp0319,綠光動物醫院∥骨外科、牙科、消化道內視鏡、心臟科、內科、皮膚科∥,OPERATIONAL,TYN001,330台灣桃園市桃園區民族路250號,033311198,63.0,1,4.6,314.0,2024-08-21,121.3070825,24.9960004,https://maps.google.com/?cid=10580044581966346826,https://www.facebook.com/%E7%B6%A0%E5%85%89%E5%8B%95%E7%89%A9%E9%86%AB%E9%99%A2-242161602543376,ChIJNy0JGAAfaDQRSnrm533e05I,
hp0320,新世紀獸醫院,OPERATIONAL,TYN001,330台灣桃園市桃園區萬壽路三段179號,033328100,57.0,1,4.8,281.0,2025-05-25,121.3193228,24.9907622,https://maps.google.com/?cid=3887412820433750312,https://www.facebook.com/newcenturyvet/,ChIJSyu2MiAfaDQRKMlAIV3d8jU,
hp0321,逗號動物醫院（桃園院區）,OPERATIONAL,TYN001,330台灣桃園市桃園區中山路517號,033322212,77.0,1,4.5,569.0,2024-12-03,121.29731,24.9911296,https://maps.google.com/?cid=4575963525115460115,https://www.doghouse.tw/,ChIJUTF2WmIfaDQRE7qm45QWgT8,
hp0322,春天動物醫院,OPERATIONAL,TYN001,330台灣桃園市桃園區自強路52號,033330995,51.0,1,4.9,365.0,2025-07-12,121.3180886,24.9984462,https://maps.google.com/?cid=1053703466630886132,,ChIJVVVVVVYeaDQR9LIhW7iBnw4,
hp0323,新桃園犬貓專科醫院 腎病 腎衰竭 心臟病 腫瘤 胰臟炎 治療中心 03-3920229,OPERATIONAL,TYN001,330台灣桃園市桃園區中山路1050號1樓,033920229,49.0,1,4.3,186.0,2024-08-14,121.2841568,24.9880019,https://maps.google.com/?cid=11712395217688492243,https://www.facebook.com/dogcat.hospital/,ChIJWQQ9xQ8faDQR03hOQ2XJiqI,
hp0324,哲安動物醫院,OPERATIONAL,TYN001,330台灣桃園市桃園區中山路632號,033337785,60.0,1,4.4,116.0,2025-07-21,121.2962995,24.9910879,https://maps.google.com/?cid=13023265242831429857,,ChIJWa_aYhAfaDQR4aCo9rzuu7Q,
hp0325,振源動物醫院,OPERATIONAL,TYN001,330台灣桃園市桃園區中山東路215號,033324825,45.0,1,4.0,14.0,2020-04-11,121.3199599,24.99788,https://maps.google.com/?cid=9095439645207076971,,ChIJWcy29_ceaDQRa6CS6Cp-OX4,
hp0326,永安動物醫院,OPERATIONAL,TYN001,330台灣桃園市桃園區永安路554號,033377332,72.0,1,4.7,107.0,2025-08-30,121.2984437,25.0022283,https://maps.google.com/?cid=14279797185720810950,,ChIJXRNywAcfaDQRxv2C_-EHLMY,
hp0327,樂米動物醫院,OPERATIONAL,TYN001,330台灣桃園市桃園區中正五街206號,033557073,54.0,1,3.9,120.0,2018-08-06,121.3009451,25.0044912,https://maps.google.com/?cid=12061618244970361741,,ChIJXyP6tasfaDQRjTPUe-N5Y6c,
hp0328,小米動物醫院(約診制),OPERATIONAL,TYN001,330台灣桃園市桃園區同安街383號,033164371,54.0,1,4.8,383.0,2018-08-03,121.3019493,25.0178306,https://maps.google.com/?cid=4300007509968132708,,ChIJYVpVW7EfaDQRZJopQwyyrDs,
hp0329,奇昀動物醫院,OPERATIONAL,TYN001,330台灣桃園市桃園區民生路374號,033313170,66.0,1,4.6,102.0,2023-03-19,121.3117528,24.9975527,https://maps.google.com/?cid=17531551206781519234,http://dogcathospital.blogspot.tw/,ChIJYZss_f4eaDQRgoXIue-UTPM,
hp0330,春日動物診所,OPERATIONAL,TYN001,330台灣桃園市桃園區春日路975巷2-1號2 樓,033559338,69.0,1,4.8,133.0,2023-08-05,121.3100409,25.0108926,https://maps.google.com/?cid=2650498872313487070,,ChIJZeFfjFMeaDQR3p7Rca52yCQ,
hp0331,柏林動物醫院,OPERATIONAL,TYN001,330台灣桃園市桃園區龍安街68號,033699623,69.0,1,4.4,21.0,2023-02-02,121.2807029,24.9886518,https://maps.google.com/?cid=13205939086130527733,,ChIJa2fCMGofaDQR9b1BeqHrRLc,
hp0332,日安動物醫院,OPERATIONAL,TYN001,330台灣桃園市桃園區永安路267號,033335723,57.0,1,4.6,148.0,2024-09-03,121.302265,24.998797,https://maps.google.com/?cid=11076049608434661504,,ChIJd_wbtgYfaDQRgDhaeW8Itpk,
hp0333,達特蘇動物醫院,OPERATIONAL,TYN001,244台灣新北市林口區南勢街322號,0226087725,73.0,1,4.7,211.0,2025-05-09,121.3569229,25.0768621,https://maps.google.com/?cid=6591122640896370138,https://www.facebook.com/profile.php?id=100063968410085&mibextid=LQQJ4d,ChIJdz2sf02nQjQR2qWp4R5feFs,
hp0334,大台北動物醫院《推薦動物醫院》桃園區寵物預防針｜寵物看牙｜心臟超音波｜健檢｜骨科｜專業獸醫,OPERATIONAL,TYN001,330台灣桃園市桃園區永安路854號,033017158,62.0,1,4.3,292.0,2025-07-08,121.2922654,25.0072558,https://maps.google.com/?cid=13126741160726604120,http://www.dataipeivet.com.tw/,ChIJe4KNJKcfaDQRWKmbh4mNK7Y,
hp0335,高生動物醫院｜內科｜外科｜心臟科｜腹膜炎治療醫院,OPERATIONAL,TYN001,330台灣桃園市桃園區中山路419號,033341159,72.0,1,4.4,392.0,2021-04-16,121.300439,24.991674,https://maps.google.com/?cid=7961654468222117384,https://www.facebook.com/%E9%AB%98%E7%94%9F%E5%8B%95%E7%89%A9%E9%86%AB%E9%99%A2-1690395911176473/,ChIJf0aUJBsfaDQRCObHYo56fW4,
hp0336,寶貝屋動物醫院,OPERATIONAL,TYN001,330台灣桃園市桃園區泰昌三街154號,032201051,0.0,1,4.2,35.0,2023-09-21,121.295391,24.985531,https://maps.google.com/?cid=1881581329884037352,,ChIJicuboRcfaDQR6MC-H0C4HBo,
hp0337,佳貝捷動物醫院,OPERATIONAL,TYN001,330台灣桃園市桃園區經國路232號,033255525,45.0,1,4.9,128.0,2024-02-15,121.3050581,25.0180973,https://maps.google.com/?cid=16179376878348686840,https://www.facebook.com/JBah01/,ChIJjQL9S1sfaDQR-FUkgYyxiOA,
hp0338,新橋動物醫院,OPERATIONAL,TYN001,33059台灣桃園市桃園區永安路434號,033332233,60.0,1,4.6,94.0,2025-03-01,121.3000953,25.0001663,https://maps.google.com/?cid=9682719690865975909,https://www.facebook.com/newbridgeanimalhospital/,ChIJk9oOYAWpQjQRZSK_8UHuX4Y,
hp0339,寶慶動物醫院,OPERATIONAL,TYN001,330台灣桃園市桃園區寶慶路286號,033011933,72.0,1,4.9,93.0,2021-05-31,121.2921266,25.0148423,https://maps.google.com/?cid=6106792202466484759,https://baoqinghospital.com/,ChIJn65Mo6QfaDQRF-IjKSevv1Q,
hp0340,向陽動物醫院,OPERATIONAL,TYN001,330台灣桃園市桃園區三民路三段579號,033763376,63.0,1,4.6,193.0,2022-06-23,121.307688,24.9836354,https://maps.google.com/?cid=13938805715941939746,,ChIJnYqlOh4faDQRIlrnm_KVcME,
hp0341,愛心動物醫院,OPERATIONAL,TYN001,330台灣桃園市桃園區中寧街23號,033585827,66.0,1,4.7,52.0,2024-05-20,121.2955942,25.0178927,https://maps.google.com/?cid=14517906588506133463,,ChIJocobXrofaDQR1xM2gh_3eck,
hp0342,24H動物急診服務-桃園品湛動物醫院-內視鏡微創中心治療,OPERATIONAL,TYN001,330台灣桃園市桃園區民生路495-9號,033363252,168.0,1,4.3,167.0,2025-08-13,121.3093662,25.0027364,https://maps.google.com/?cid=17937879979185817812,https://www.ghanimalcasa.com/,ChIJpT9aFnUfaDQR1Ej2Vs0m8Pg,
hp0343,泉野動物診所/官方line預約/中獸醫/針灸/到府,OPERATIONAL,TYN001,330台灣桃園市桃園區正光一街86號,032713701,0.0,1,5.0,33.0,2025-01-15,121.2932327,24.9991082,https://maps.google.com/?cid=7694511887281081775,http://izuminovet.weebly.com/,ChIJqVIBHIQfaDQRr81oUctlyGo,
hp0344,思邁爾動物醫院醫療院區,OPERATIONAL,TYN001,330台灣桃園市桃園區莊敬路二段100巷3號,033029995,70.0,1,4.2,501.0,2024-08-31,121.2925845,25.0227288,https://maps.google.com/?cid=2321176190748952174,http://www.smileanimal.com/,ChIJqynrFbkfaDQRboavhnJ5NiA,
hp0345,晨曦動物醫院,OPERATIONAL,TYN001,330台灣桃園市桃園區龍安街193號,033600922,84.0,1,4.1,226.0,2024-11-08,121.2780487,24.9933052,https://maps.google.com/?cid=2547036476388252148,https://m.facebook.com/pages/category/Veterinarian/%E6%99%A8%E6%9B%A6%E5%8B%95%E7%89%A9%E9%86%AB%E9%99%A2-422751984463848/,ChIJszCshhIfaDQR9JkVNS7kWCM,
hp0346,元氣動物醫院三民總院24HR急診重症中心,OPERATIONAL,TYN001,330台灣桃園市桃園區三民路三段381號,033333816,168.0,1,4.1,1070.0,2025-10-20,121.3069444,24.99,https://maps.google.com/?cid=3399546185153697464,http://www.genkivet.com.tw/,ChIJt5G1Rh0faDQRuNaeaz6dLS8,
hp0347,小果苗動物醫院,OPERATIONAL,TYN001,330台灣桃園市桃園區南平路512號,033577027,63.0,1,4.7,184.0,2025-09-13,121.293726,25.0163276,https://maps.google.com/?cid=4060773104936912330,https://www.facebook.com/pages/category/Veterinarian/%E5%B0%8F%E6%9E%9C%E8%8B%97%E5%8B%95%E7%89%A9%E9%86%AB%E9%99%A2-296710237890416/,ChIJtazqInMfaDQRyoU5wZ_DWjg,
hp0348,仰望動物醫院,OPERATIONAL,TYN001,330台灣桃園市桃園區莊二街12號,033178090,37.5,1,3.2,17.0,2022-11-15,121.2966082,25.025151,https://maps.google.com/?cid=12604771998354424432,https://sites.google.com/site/lookuptoah/,ChIJtfCfrL0faDQRcMK0fFkl7a4,
hp0349,永祥動物醫院,OPERATIONAL,TYN001,330台灣桃園市桃園區正光路117號,033920149,68.0,1,4.6,31.0,2021-05-17,121.2948556,24.994431,https://maps.google.com/?cid=16422220912152635577,,ChIJvRhB2g8faDQRuWjZM-ly5-M,
hp0350,陳獸醫院,OPERATIONAL,TYN001,330台灣桃園市桃園區復興路228號,033331119,46.0,1,4.7,833.0,2025-07-28,121.3093893,24.9895143,https://maps.google.com/?cid=17305737011048945907,https://www.facebook.com/DrChenAnimalHospital/,ChIJy7qLu-IeaDQR8xjnLx9UKvA,
hp0351,安欣動物醫院,OPERATIONAL,TYN001,330台灣桃园市桃園區中福街60號1樓,033367775,63.0,1,4.7,443.0,2025-01-12,121.3042581,24.9974325,https://maps.google.com/?cid=12229962241797433816,http://www.icreatepet.com.tw/,ChIJzz7UHfweaDQR2KnGntyNuak,
hp0352,桔醬動物醫院（預約優先制）,OPERATIONAL,TYN004,326台灣桃園市楊梅區新成路27號,034880068,37.5,1,4.8,223.0,2025-10-24,121.1470415,24.9125614,https://maps.google.com/?cid=10935679302782525359,https://www.facebook.com/jijiang110/,ChIJ1din-_0laDQRr5_x22JWw5c,
hp0353,嘉興獸醫院,OPERATIONAL,TYN004,326台灣桃園市楊梅區中山北路二段382號,034820808,0.0,1,3.4,31.0,2023-06-11,121.1765564,24.9130409,https://maps.google.com/?cid=13458073657671115320,,ChIJCd7LMlcjaDQROGKHDrCuxLo,
hp0354,東昇動物醫院,OPERATIONAL,TYN004,326台灣桃園市楊梅區新成路109號,034850171,62.0,1,4.1,161.0,2024-09-13,121.146892,24.9104828,https://maps.google.com/?cid=8728873794473774040,,ChIJMY0zRjU7aDQR2EvT8HcwI3k,
hp0355,小栩動物醫院,OPERATIONAL,TYN004,326台灣桃園市楊梅區中山北路一段494巷90號,034758001,56.0,1,4.8,121.0,2025-03-26,121.1604117,24.9121354,https://maps.google.com/?cid=17653717980819945798,https://www.facebook.com/siaosyu0529,ChIJd_GcRnslaDQRRvmyW_ia_vQ,
hp0356,休假請根據FB粉專公告為主,OPERATIONAL,TYN004,326台灣桃園市楊梅區瑞福街11-1號,034825557,48.0,1,4.6,21.0,2025-03-16,121.178882,24.9119462,https://maps.google.com/?cid=14151940211095778189,https://www.facebook.com/share/VmHHfuFwFnuoDJuA/?mibextid=LQQJ4d,ChIJi38NGAAjaDQRjTPuTKTKZcQ,
hp0357,人人動物醫院-埔心分院,OPERATIONAL,TYN004,326台灣桃園市楊梅區永美路272號,034315700,64.16666666666666,1,4.2,283.0,2025-09-17,121.1826574,24.9182277,https://maps.google.com/?cid=16025957226085242597,https://www.zmnzmnpusin.com.tw/,ChIJjd77B5MjaDQR5VZqHjCjZ94,
hp0358,楊梅動物醫院,OPERATIONAL,TYN004,326台灣桃園市楊梅區中山路10號,034855343,68.0,1,4.0,201.0,2025-08-05,121.1486272,24.9074606,https://maps.google.com/?cid=9618870859836325663,,ChIJp4vpd0o7aDQRH3_mhBUYfYU,
hp0359,崇恩動物醫院,OPERATIONAL,TYN004,326台灣桃園市楊梅區文化街32號,034823627,80.5,1,2.4,19.0,2022-07-05,121.1847969,24.9160024,https://maps.google.com/?cid=4540569333632588072,,ChIJr3gh_UQjaDQRKNkzgcBXAz8,
hp0360,中華動物醫院,OPERATIONAL,TYN005,"No. 223, No. 338中正路蘆竹區桃園市台灣 338",033522669,55.0,1,4.2,233.0,2025-05-29,121.2924792,25.0463576,https://maps.google.com/?cid=8885038328894503525,,ChIJ286gv9gfaDQRZbp8AUn_TXs,
hp0361,喜樂地動物醫院&寵物美容,OPERATIONAL,TYN005,338台灣桃園市蘆竹區中興路98號,033132012,48.0,1,4.7,207.0,2025-06-14,121.2651649,25.0160912,https://maps.google.com/?cid=1992392563641750800,https://www.facebook.com/sheltie319/,ChIJ6fNd94YfaDQREBX_AHtmphs,
hp0362,逗號動物醫院（南崁院區）,OPERATIONAL,TYN005,338208台灣桃園市蘆竹區南華一街39號,033322212,77.0,1,4.6,268.0,2025-09-26,121.295991,25.043508,https://maps.google.com/?cid=14551154508184840278,https://www.doghouse.tw/,ChIJ7ylbOmkfaDQRVmguDO4V8Mk,
hp0363,南崁動物醫院,OPERATIONAL,TYN005,338台灣桃園市蘆竹區中正路379號,033520136,59.0,1,4.2,125.0,2023-11-06,121.2906968,25.049482,https://maps.google.com/?cid=6446866988491311377,,ChIJA3ek3XWgQjQREYk3e17fd1k,
hp0364,湖光動物醫院(有最後掛號時間限制),OPERATIONAL,TYN005,338台灣桃園市蘆竹區桃園街178號,033528861,51.0,1,4.7,339.0,2025-08-06,121.2906954,25.0481906,https://maps.google.com/?cid=4335371206373943704,https://www.facebook.com/share/14j5mCUJPzT/?mibextid=LQQJ4d,ChIJB4ug-XWgQjQRmClgdSRVKjw,
hp0365,春風動物醫院《眼科｜牙科｜骨科｜內視鏡｜出診｜心臟超音波｜獸醫》,OPERATIONAL,TYN005,338台灣桃園市蘆竹區大新路171號1樓,033138014,45.0,1,4.6,124.0,2023-02-19,121.2540713,25.0248105,https://maps.google.com/?cid=5793310648743542007,https://sprwind.com/,ChIJTRTpqx0haDQR97zYO1f5ZVA,
hp0366,樂福動物醫院,OPERATIONAL,TYN005,338台灣桃園市蘆竹區中山路12號,032225081,60.0,1,4.3,29.0,2024-09-14,121.3015193,25.0509361,https://maps.google.com/?cid=5826170804181445642,,ChIJW-eQmXmhQjQRCqz8X3q32lA,
hp0367,新時代動物醫院,OPERATIONAL,TYN005,338台灣桃園市蘆竹區中正路337號,033522257,70.0,1,2.7,24.0,2025-02-24,121.2912344,25.0485214,https://maps.google.com/?cid=16128807516651981743,,ChIJWQ_YAQChQjQRrwuxePsI1d8,
hp0368,Shepherd Animal Hospital,OPERATIONAL,TYN005,338台灣桃園市蘆竹區南順五街11號,033127227,40.0,1,4.9,354.0,2025-03-01,121.2883723,25.0404997,https://maps.google.com/?cid=10623732785570472996,https://www.facebook.com/Shepherd.A.H,ChIJZXZsVdwfaDQRJGSZeK4Ub5M,
hp0369,守足動物醫院,OPERATIONAL,TYN005,338台灣桃園市蘆竹區上興路61號,033233866,48.5,1,4.9,47.0,2023-10-21,121.2649104,25.0194312,https://maps.google.com/?cid=4623095053263954754,https://m.facebook.com/guardfamilyanimalhospital,ChIJiSZTNkUfaDQRQuOp7HSIKEA,
hp0370,元氣動物醫院南崁分院,OPERATIONAL,TYN005,338台灣桃園市蘆竹區中正路352號,032229198,83.5,1,4.4,471.0,2023-12-31,121.2908713,25.0499776,https://maps.google.com/?cid=6915591316815550290,http://www.genkivet.com.tw/,ChIJiz560HWgQjQRUheRiqkd-V8,
hp0371,設想動物醫院,OPERATIONAL,TYN005,338台灣桃園市蘆竹區南順七街22號,032225859,40.0,1,4.4,117.0,2023-05-25,121.2907643,25.0388794,https://maps.google.com/?cid=6761943628818504625,http://www.hofavet.com.tw/,ChIJrQW0o9wfaDQRsVvxcuc_110,
hp0372,維樂動物醫院 We Love,OPERATIONAL,TYN012,328台灣桃園市觀音區新生路1521號,034836997,38.0,1,4.9,164.0,2025-08-08,121.143535,25.0423652,https://maps.google.com/?cid=11264286041285629743,https://www.facebook.com/%E7%B6%AD%E6%A8%82%E5%8B%95%E7%89%A9%E9%86%AB%E9%99%A2-114123608309786,ChIJpcMgo8snaDQRL5c4S3nIUpw,
hp0373,梁動物醫院,OPERATIONAL,TYN009,325台灣桃園市龍潭區東龍路136號,034792945,56.0,1,3.9,83.0,2025-04-12,121.2151169,24.8626539,https://maps.google.com/?cid=9834599482730988427,,ChIJ6_tNOf08aDQRi8NrpB-Ee4g,
hp0374,彼沐動物醫院-龍潭動物醫院|動物牙科|獸醫推薦|動物內科|寵物健康檢查|動物家醫科|貓友善醫院|動物超音波,OPERATIONAL,TYN009,325台灣桃園市龍潭區中豐路267號,034990258,57.0,1,5.0,19.0,2025-10-16,121.2121535,24.8771066,https://maps.google.com/?cid=4900436808448640516,https://www.facebook.com/profile.php?id=61579164067329,ChIJS18-rT09aDQRBIbUS1DZAUQ,
hp0375,人人動物醫院龍潭總院,OPERATIONAL,TYN009,325台灣桃園市龍潭區北龍路122號,034895900,51.0,1,4.2,666.0,2024-07-09,121.2141095,24.8660103,https://maps.google.com/?cid=5414161985787834545,,ChIJVwkN_uI8aDQRsbBO_6P3Iks,
hp0376,泛亞動物醫院,OPERATIONAL,TYN009,325台灣桃園市龍潭區東龍路285號,034803728,54.0,1,5.0,17.0,2025-10-27,121.2134251,24.8662222,https://maps.google.com/?cid=1339403338929441714,,ChIJmfl_dQA9aDQRsovcgz2ElhI,
hp0377,徐犬貓專科醫院,OPERATIONAL,TYN009,325台灣桃園市龍潭區中豐路中山段13號,034092158,72.0,1,4.1,37.0,2022-12-23,121.2133434,24.8688827,https://maps.google.com/?cid=12613374689057923653,,ChIJozNS1-M8aDQRRWIzgHO1C68,
hp0378,旺旺動物醫院,OPERATIONAL,TYN009,325台灣桃園市龍潭區龍元路58號,034703048,72.0,1,4.5,48.0,2024-06-17,121.212378,24.865157,https://maps.google.com/?cid=8281123732064557356,,ChIJz07VQOM8aDQRLNnDtih27HI,
hp0379,聯盟動物醫院 桃園龜山萬壽分院 心臟專科 眼科專科 犬貓內外科團隊 牙科COHATCohat(全方位口腔健康評估與治療) 桃園獸醫推薦,OPERATIONAL,TYN007,333台灣桃園市龜山區萬壽路二段1125號1樓,033505565#1120,63.0,1,4.8,95.0,2025-05-08,121.3335591,24.9935095,https://maps.google.com/?cid=17916222537588121531,https://www.pet100pa.com/hospital_detail/%E6%A1%83%E5%9C%92%E9%BE%9C%E5%B1%B1%E8%90%AC%E5%A3%BD%E9%99%A2,ChIJ0yp_SwAfaDQRu5_JRXk1o_g,
hp0380,琪欣特殊寵物專科醫院,OPERATIONAL,TYN007,333台灣桃園市龜山區文三二街57號,033979825,39.0,1,5.0,1.0,2025-09-30,121.3601487,25.0583277,https://maps.google.com/?cid=7352825694117440905,https://www.cherishvet.com/,ChIJ772ABkKnQjQRiS08CQN8CmY,
hp0381,樂醫動物醫院（預約制 加賴@joyjoy1314）,OPERATIONAL,TYN007,333台灣桃園市龜山區文青二路73號,033978627,35.0,1,4.8,67.0,2025-10-20,121.3894895,25.0383832,https://maps.google.com/?cid=7890172972361782809,https://www.facebook.com/people/%E6%A8%82%E9%86%AB%E5%8B%95%E7%89%A9%E9%86%AB%E9%99%A2/100093041676136/?locale=zh_TW,ChIJIfWkqx2nQjQRGRYDsoOGf20,
hp0382,琪欣動物醫院,OPERATIONAL,TYN007,333台灣桃園市龜山區文三一街65號,033979825,46.0,1,4.5,207.0,2025-05-11,121.3602174,25.0584073,https://maps.google.com/?cid=17822561897317239199,https://www.facebook.com/p/%E7%90%AA%E6%AC%A3%E5%8B%95%E7%89%A9%E9%86%AB%E9%99%A2-100057469989276/?locale=zh_TW,ChIJJVmaNDenQjQRn4kBHZ51Vvc,
hp0383,桃園龜山泰安動物醫院,OPERATIONAL,TYN007,333台灣桃園市龜山區萬壽路二段1319號,033203069,72.0,1,3.6,23.0,2020-07-23,121.3271486,24.9927324,https://maps.google.com/?cid=17755345636867122316,https://www.iyp.com.tw/033372939/,ChIJMTn-2_QeaDQRjCS_7cioZ_Y,
hp0384,林動物醫院,OPERATIONAL,TYN007,333台灣桃園市龜山區復興二路110巷62號,033277235,72.0,1,4.6,124.0,2024-12-11,121.3724353,25.0569544,https://maps.google.com/?cid=13815895678965118572,,ChIJQz4iqCinQjQRbPaRluvru78,
hp0385,聖恩動物醫院,OPERATIONAL,TYN007,333台灣桃園市龜山區萬壽路二段1141號,033507425,64.5,1,4.6,168.0,2023-11-13,121.3330379,24.9934322,https://maps.google.com/?cid=16747977550551080744,,ChIJRdKO44oeaDQRKF_Q_tjEbOg,
hp0386,長春動物醫院,OPERATIONAL,TYN007,333台灣桃園市龜山區萬壽路二段960號,033298323,57.0,1,4.8,235.0,2025-04-24,121.3378981,24.9953675,https://maps.google.com/?cid=6791687089929225749,,ChIJTQ_sFmIeaDQRFYbWpGzrQF4,
hp0387,欣欣動物醫院 - 桃園龜山（採預約優先制）,OPERATIONAL,TYN007,333台灣桃園市龜山區萬壽路二段918號,033500683,78.0,1,4.5,107.0,2025-03-15,121.3387164,24.995773,https://maps.google.com/?cid=16820721041294366256,,ChIJY1I8D8wfaDQRMBZKxKo0b-k,
hp0388,心宿動物醫院 （龜山A7動物醫院推薦 犬貓專科 一般內外科 心臟 皮膚 腸胃 牙科 急診 貓科 住院 氧氣病房 專業氣體麻醉）,OPERATIONAL,TYN007,333台灣桃園市龜山區樂善二路517號1樓,033979993,63.0,1,5.0,81.0,2025-05-10,121.3924982,25.0460884,https://maps.google.com/?cid=12399539599406485577,https://www.instagram.com/stellarheartvet?igsh=MXBrOXBxZXhuYzMzNA==&utm_source=qr,ChIJaWxxDwCnQjQRSVAD8ZEDFKw,
hp0389,信安動物醫院,OPERATIONAL,TYN007,333台灣桃園市龜山區自強南路82號,033503075,78.0,1,3.8,45.0,2024-03-24,121.3390088,24.992826,https://maps.google.com/?cid=8383495798502502983,,ChIJjVKgt4keaDQRR7K41QIpWHQ,
hp0390,鑫鑫動物醫院,OPERATIONAL,TCH001,400台灣臺中市中區臺灣大道一段573號,0422254169,32.5,1,4.7,637.0,2025-06-04,120.6760831,24.1451719,https://maps.google.com/?cid=14703383914703209923,https://www.facebook.com/%E9%91%AB%E9%91%AB%E5%8B%95%E7%89%A9%E9%86%AB%E9%99%A2-172597079420622/,ChIJJ8bo5jQzDxQRw8UTwMTpDMw,
hp0391,潮慶動物醫院,OPERATIONAL,TCH005,404台灣臺中市北區漢口路三段171號,0422917303,66.0,1,4.2,66.0,2023-10-04,120.6708575,24.1671159,https://maps.google.com/?cid=17221320655270205500,,ChIJ7yCIxNUXaTQRPFh6vORr_u4,
hp0392,五權動物醫院,OPERATIONAL,TCH005,404台灣臺中市北區五權路390號,0422013909,62.0,1,4.6,147.0,2024-07-23,120.681789,24.1527659,https://maps.google.com/?cid=11259066881432117180,,ChIJ8z4UjWU9aTQRvF8g8qw9QJw,
hp0393,康熙動物醫院,OPERATIONAL,TCH005,404台灣臺中市北區天祥街2號,0422360188,80.5,1,4.4,53.0,2022-06-15,120.6946864,24.161222,https://maps.google.com/?cid=5622876528575996677,,ChIJF-vB9eEXaTQRBWOnVWl4CE4,
hp0394,米谷動物醫院,OPERATIONAL,TCH005,404台灣臺中市北區青島路三段212號,0422380791,57.5,1,4.8,111.0,2021-12-07,120.684252,24.1682779,https://maps.google.com/?cid=470234439194136968,,ChIJGVrKG9wXaTQRiFFSJbubhgY,
hp0395,沐恩動物醫院,OPERATIONAL,TCH005,404台灣臺中市北區健行路865號,0422077271,43.0,1,4.7,101.0,2024-10-22,120.6694723,24.159047,https://maps.google.com/?cid=9160779942391338341,https://www.facebook.com/MuEnAHinTaichung,ChIJGfCcInk9aTQRZVXCW9KgIX8,
hp0396,全邑動物醫院,OPERATIONAL,TCH005,404台灣臺中市北區德化街227號,0422381858,60.0,1,4.7,141.0,2024-01-30,120.6847225,24.1614801,https://maps.google.com/?cid=7866264510936727908,https://www.facebook.com/share/YzJH1sdwfzujyiz9,ChIJK4x7wmE9aTQRZEGlO-WVKm0,
hp0397,全國動物醫院 七期分院,OPERATIONAL,TCH005,40455台灣臺中市北區育樂街70號,0424712853,50.5,1,4.1,271.0,2023-08-08,120.6920528,24.1577054,https://maps.google.com/?cid=16696576438203919047,http://www.vet.com.tw/store_detail.php?Key=6,ChIJNUrJILo9aTQRxypN7M4ntuc,
hp0398,環亞動物醫院,OPERATIONAL,TCH005,404台灣臺中市北區五權路580號,0422237470,57.0,1,4.6,85.0,2021-09-02,120.6849363,24.1539823,https://maps.google.com/?cid=17872534447476007320,http://www.asiavet.idv.tw/,ChIJNeuDLWY9aTQRmGG9IWP_B_g,
hp0399,信安動物醫院,OPERATIONAL,TCH005,404台灣臺中市北區健行路638號,0422055045,84.0,1,4.3,1439.0,2025-10-19,120.6750412,24.1592849,https://maps.google.com/?cid=8483742444589354753,,ChIJOUnwg3w9aTQRAQ-n981OvHU,
hp0400,宏光動物醫院,OPERATIONAL,TCH005,404台灣臺中市北區健行路588號,0422033280,64.0,1,4.0,56.0,2017-09-06,120.677319,24.1593045,https://maps.google.com/?cid=3192030965854322986,,ChIJRT-Zsnw9aTQRKkHLV0BfTCw,
hp0401,春天動物醫院,OPERATIONAL,TCH005,40457台灣臺中市北區進化北路294號,0422350838,57.0,1,4.0,327.0,2025-03-19,120.6827815,24.1632863,https://maps.google.com/?cid=10200787436496714079,https://www.facebook.com/spring.animal.fans?mibextid=LQQJ4d,ChIJT-3_rtgXaTQRX3mnnSB6kI0,
hp0402,一心獸醫院,OPERATIONAL,TCH005,404台灣臺中市北區錦華街56號,0422351677,36.0,1,4.7,201.0,2022-04-09,120.6885409,24.156133,https://maps.google.com/?cid=5396427346748359362,,ChIJU1s0U2c9aTQRwsIjkxT240o,
hp0403,杜博動物血庫 | 動物醫院,OPERATIONAL,TCH005,404台灣臺中市北區博館一街32號,0437040004,84.0,1,4.9,8.0,2024-12-31,120.6682844,24.1540502,https://maps.google.com/?cid=13387151393327347240,http://www.doolb.org/,ChIJZXUuheI8aTQRKPammUO3yLk,
hp0404,小腳印動物醫院（預約制）,OPERATIONAL,TCH005,404台灣臺中市北區太原路三段78-5號,0422357471,41.0,1,4.9,490.0,2022-08-14,120.6878987,24.1648239,https://maps.google.com/?cid=4335713811784474081,https://www.facebook.com/LittleFootprint1/,ChIJ__-de-oXaTQR4R0rf72MKzw,
hp0405,宏恩動物醫院,OPERATIONAL,TCH005,404台灣臺中市北區太原路一段426號,0422030359,51.0,1,4.9,104.0,2025-01-31,120.666766,24.164705,https://maps.google.com/?cid=15133159306782112702,,ChIJ_xoOkn89aTQRvvsk6jXIA9I,
hp0406,中台動物醫院,OPERATIONAL,TCH005,404台灣臺中市北區,0422922955,72.0,1,4.3,12.0,2024-08-31,120.6716219,24.1721125,https://maps.google.com/?cid=5696597924440092718,,ChIJb1MP39MXaTQRLrB6YqFhDk8,
hp0407,瓦奇動物醫院,OPERATIONAL,TCH005,404台灣臺中市北區學士路240號,0422356205,39.0,1,4.8,25.0,2024-01-22,120.6810996,24.1608673,https://maps.google.com/?cid=9508021988525654587,https://m.facebook.com/pages/category/Veterinarian/%E8%AA%A0%E5%93%81%E5%8B%95%E7%89%A9%E9%86%AB%E9%99%A2-Eslite-animal-hospital-644244365609750/,ChIJd7fYoiA9aTQRO8Ksdp9H84M,
hp0408,貝爾動物醫院博館分院(全預約制),OPERATIONAL,TCH005,40453台灣臺中市北區博館路15號,0422070015,54.0,1,5.0,41.0,2025-07-22,120.6693523,24.1583047,https://maps.google.com/?cid=10690329283183694674,https://linktr.ee/bearvetneuro,ChIJdRf8a349aTQRUtMe4NetW5Q,
hp0409,巷內有貓動物醫院（需預約）,OPERATIONAL,TCH005,404台灣臺中市北區英才路319巷23號,0422010502,40.0,1,4.9,58.0,2021-08-18,120.6699804,24.1552743,https://maps.google.com/?cid=378055770123796455,https://www.facebook.com/catsinalleyah/,ChIJgYzLOtQ9aTQR5_-DS7gfPwU,
hp0410,全國動物醫院 貓醫院,OPERATIONAL,TCH005,40457台灣臺中市北區進化北路162號,0422377025,58.0,1,4.3,377.0,2023-08-24,120.686072,24.1632195,https://maps.google.com/?cid=3126472872599930104,https://www.vet.com.tw/store_detail.php?Key=11,ChIJh-gdoN8XaTQR-MQ2S4N2Yys,
hp0411,犬揚獸醫院,OPERATIONAL,TCH005,404台灣臺中市北區英才路298號,0422059822,34.0,1,4.7,228.0,2025-08-04,120.6710106,24.1558922,https://maps.google.com/?cid=6386851126841447688,,ChIJl3sN7Xk9aTQRCBWwyEKnolg,
hp0412,感恩動物醫院,OPERATIONAL,TCH005,404台灣臺中市北區忠明路131號,0423202590,48.0,1,4.8,295.0,2025-08-28,120.6631104,24.1616989,https://maps.google.com/?cid=475356604228778081,https://linktr.ee/thanksgiving_animal_hospital,ChIJnYTOKoI9aTQRYTixIFDOmAY,
hp0413,台碩動物醫院,OPERATIONAL,TCH005,404台灣臺中市北區中清路一段470號,0422082515,0.0,1,4.1,28.0,2024-12-17,120.6744139,24.1640392,https://maps.google.com/?cid=8073161280301168557,,ChIJoQPegn09aTQRrffJNmmhCXA,
hp0414,劍橋動物醫院北屯分院｜本院設有犬貓內科|復健|針灸|外科手術|心臟超音波|全腹腔超音波|健康檢查|貓瘟及傳染病治療|隔離病房|骨科|內視鏡|胃鏡|胃異物夾取|超音波刀|雷射刀|四級雷射復健治療|洗牙|犬貓絕育|剖腹產|懷孕檢查,OPERATIONAL,TCH005,404台灣臺中市北區文心路四段190-2號,0422916546,48.0,1,4.3,183.0,2023-04-21,120.6754481,24.1734293,https://maps.google.com/?cid=16945413660252889893,https://www.facebook.com/cambridgeah2/?ref=hl,ChIJqY9W5ecXaTQRJeNsf_EzKus,
hp0415,旭采動物醫院-動物心臟科|動物眼科|動物牙科|鼠兔看診|寵物健檢|獸醫推薦|動物內外科|台中北區動物醫院,OPERATIONAL,TCH005,404台灣臺中市北區漢口路四段297號,0422370128,73.0,1,5.0,66.0,2024-12-03,120.6807881,24.1673968,https://maps.google.com/?cid=831528088222402597,https://www.facebook.com/sunshine.ah.tw/,ChIJq_e_R4wXaTQRJYhB_2Muigs,
hp0416,全國動物醫院 大雅分院,OPERATIONAL,TCH005,404台灣臺中市北區中清路一段566號,0422954667,64.5,1,4.2,211.0,2025-09-07,120.6735364,24.1666428,https://maps.google.com/?cid=15363276025402547451,https://www.vet.com.tw/store_detail.php?Key=9,ChIJr4jVVNEXaTQR-9xkoCVSNdU,
hp0417,庚欣動物醫院,OPERATIONAL,TCH005,404台灣臺中市北區雙十路二段77號,0422319663,49.0,1,4.5,26.0,2023-07-15,120.6895795,24.1552134,https://maps.google.com/?cid=4015488656891275263,,ChIJtyiL8F09aTQR_2edkajhuTc,
hp0418,默默動物醫院,OPERATIONAL,TCH005,404台灣臺中市北區進化路343號,0423608007,45.0,1,4.7,97.0,2023-09-23,120.6942104,24.1536946,https://maps.google.com/?cid=11636578403822837701,https://www.facebook.com/%E9%BB%98%E9%BB%98%E5%8B%95%E7%89%A9%E9%86%AB%E9%99%A2-110462786298541/,ChIJwSUADVw9aTQRxZ_XsGdufaE,
hp0419,樂樂復健動物醫院｜夜間急診不加價・復健皮膚內外科,OPERATIONAL,TCH005,404台灣臺中市北區中清路一段418號,0422085862,84.0,1,4.6,247.0,2025-10-01,120.6748849,24.1631564,https://maps.google.com/?cid=11499994529012058973,,ChIJxVVlFzc9aTQRXQuzNBgwmJ8,
hp0420,上羣動物醫院,OPERATIONAL,TCH005,404台灣北區健行路76號,0422307765,42.0,1,4.2,18.0,2024-06-12,120.6891633,24.1590879,https://maps.google.com/?cid=5222029356414554577,,ChIJzxht1l89aTQR0VHAOwhgeEg,
hp0421,晴天動物醫院,OPERATIONAL,TCH008,406台灣臺中市北屯區東山路一段216-14號,0424368220,51.5,1,4.9,247.0,2025-10-15,120.7137618,24.1732372,https://maps.google.com/?cid=7075401194549097967,http://www.ctcvma.org.tw/Organizations?areaCode=6600800,ChIJ26xztjEZaTQR7zV5PObfMGI,
hp0422,太原（火車站）動物醫院24小時急診（先電話詢問預約）專長外科骨科/犬貓鼠兔/高壓氧治療,OPERATIONAL,TCH008,406台灣臺中市北屯區北祥街8號,0909123464,168.0,1,3.6,163.0,2025-08-04,120.6991264,24.1641513,https://maps.google.com/?cid=5170472865480936424,https://www.facebook.com/share/nHdNiSFTR9Lpy76p/?mibextid=dD9HTC,ChIJ58NIPxsXaTQR6IvJQ601wUc,
hp0423,全國動物醫院 文心分院,OPERATIONAL,TCH008,40666台灣臺中市北屯區文心路四段323號,0422478377,64.5,1,4.5,318.0,2024-09-06,120.6802919,24.1729606,https://maps.google.com/?cid=17401129335184003066,https://www.vet.com.tw/store_detail.php?Key=8,ChIJ5cVIJ9sXaTQR-o9Fau86ffE,
hp0424,東南動物醫院,OPERATIONAL,TCH008,406台灣臺中市北屯區崇德路二段30號,0422960753,56.0,1,4.6,301.0,2025-08-18,120.6854563,24.1691871,https://maps.google.com/?cid=2161413699118708317,,ChIJ8YoeftIXaTQRXTaixE7i_h0,
hp0425,富山動物醫院,OPERATIONAL,TCH008,406台灣臺中市北屯區中清路二段11號,0422978178,57.0,1,4.5,226.0,2025-05-20,120.671084,24.1741679,https://maps.google.com/?cid=10300859298111895910,https://www.facebook.com/fsah22978178/,ChIJ9Zc6JdIXaTQRZjk9kfQA9I4,
hp0426,全國動物醫院 北全分院,OPERATIONAL,TCH008,406台灣臺中市北屯區北屯路264-7號,0422360903,62.5,1,4.5,203.0,2025-08-30,120.6984431,24.1713743,https://maps.google.com/?cid=6608446145000705167,https://www.vet.com.tw/store_detail.php?Key=10,ChIJAZJaseUXaTQRjwwRfsHqtVs,
hp0427,德愛動物醫院,OPERATIONAL,TCH008,406台灣臺中市北屯區昌平路一段95-9號,0435035057,46.5,1,4.5,296.0,2021-09-25,120.6904571,24.1721331,https://maps.google.com/?cid=12457295289391907532,https://www.facebook.com/%E5%BE%B7%E6%84%9B%E4%B8%AD%E8%A5%BF%E9%86%AB%E5%8B%95%E7%89%A9%E9%86%AB%E9%99%A2-160129990727331/,ChIJCwpKDegXaTQRzAJaahA04aw,
hp0428,康德動物醫院 夜間急診-台中北屯動物醫院/獸醫/犬貓鼠兔 24小時住院照護/夜間住院/加護/急診 犬貓血庫中心/X光/內外科/超音波 評價 PTT Dcard,OPERATIONAL,TCH008,406台灣臺中市北屯區崇德路二段270號,0422412700,143.5,1,3.9,360.0,2025-10-20,120.6859193,24.175348,https://maps.google.com/?cid=14924168797938253911,https://www.facebook.com/kantvet/,ChIJDcNFJwYXaTQRVwAUOXNMHc8,
hp0429,小丹尼寵物醫療中心,OPERATIONAL,TCH008,40667台灣臺中市北屯區文心路四段217號1F,0422955888,32.5,1,4.5,96.0,2025-06-27,120.6773032,24.1735422,https://maps.google.com/?cid=14655899488927229135,https://www.facebook.com/dannypmc2019,ChIJEdQo3KYXaTQRzyRWVe82ZMs,
hp0430,東山動物醫院,OPERATIONAL,TCH008,406台灣臺中市北屯區北屯路281之4號,0422316574,57.5,1,4.2,128.0,2023-12-04,120.6953166,24.1671953,https://maps.google.com/?cid=9178099789749807523,,ChIJFdvcm-UXaTQRo-kfkSEpX38,
hp0431,毛克利野生動物醫院｜週一晚間無提供門診服務,OPERATIONAL,TCH008,40651台灣臺中市北屯區文心路四段690號,0422386609,63.0,1,4.3,640.0,2025-04-11,120.6870864,24.171651,https://maps.google.com/?cid=4646833620235459435,https://www.facebook.com/%E6%AF%9B%E5%85%8B%E5%88%A9%E9%87%8E%E7%94%9F%E5%8B%95%E7%89%A9%E9%86%AB%E9%99%A2-106638081010427/,ChIJGVf8a98XaTQRaxt6wI7efEA,
hp0432,沃可動物醫院-台中北屯狗貓健檢心臟科超音波|狗貓腫瘤科|狗膝蓋膝關節異位手術|貓狗牙科|狗貓跛腳骨折骨科推薦|寵物內視鏡微創結紮絕育|獸醫手術推薦|獸醫動物醫院推薦,OPERATIONAL,TCH008,406台灣臺中市北屯區文心路四段776號,0422368936,59.5,1,4.6,356.0,2024-10-03,120.6892908,24.1714886,https://maps.google.com/?cid=9979862223001482831,https://www.walkvet.com/,ChIJH7QmSN4XaTQRT_ZX9dCXf4o,
