id,name,buss_status,loc_id,city_id,category_id,address,phone,op_hours,rating,rating_total,newest_review,longitude,latitude,map_url,website,place_id,update_time,store_count,w_area_cat,P75_district_rating_total,P75_city_rating_total,m_city_area_cat,district_rating_avg,avb_score,store_score
sal0001,毛樂居寵物美容工作室,OPERATIONAL,NTP029,NTP,4,233臺灣新北市烏來區溫泉街47號,,45.0,0.0,0.0,,121.5515846,24.8614266,https://maps.google.com/?cid=11355879125359784900,,ChIJrcvWcAAHaDQRxPNXA-YvmJ0,2025/10/30 09:43:54,1,0.03225806451612903,0.0,95.75,92.66129032258065,0.0,0.6339285714285714,0.0
sal0002,星光貓舍｜曼赤肯｜英短｜小步舞曲｜英長｜貓咪洗澡美容｜貓咪住宿 ｜新北貓舍,OPERATIONAL,NTP008,NTP,4,239臺灣新北市鶯歌區三鶯路106號,,0.0,5.0,49.0,2025-08-19,121.359142,24.9437539,https://maps.google.com/?cid=12376728134590950362,,ChIJAzTNiZwbaDQR2mvg56n4wqs,2025/10/30 09:43:54,15,0.3333333333333333,58.5,95.75,83.33333333333334,4.08,0.5,0.44206549118387917
sal0003,新同學寵物美容,OPERATIONAL,NTP009,NTP,4,237臺灣新北市三峽區復興路141號,0226716300,48.0,5.0,4.0,2025-01-16,121.3710623,24.9381469,https://maps.google.com/?cid=14774640014360391684,,ChIJXw9AYwAbaDQRBDA5TNAQCs0,2025/10/30 09:43:54,16,0.34782608695652173,106.75,95.75,99.57608695652175,4.6,0.6428571428571428,0.5934146889944979
sal0004,妙比寵物美容,OPERATIONAL,NTP009,NTP,4,237臺灣新北市三峽區文化路20號2樓,0226738321,40.0,4.8,39.0,2020-11-09,121.3732994,24.9359078,https://maps.google.com/?cid=13996134824851865085,http://www.facebook.com/mubepet,ChIJzQCMsvMbaDQR_f3E73dCPMI,2025/10/30 09:43:54,16,0.34782608695652173,106.75,95.75,99.57608695652175,4.6,0.6190476190476191,0.576492647415857
sal0005,瑪妮寵物,OPERATIONAL,NTP008,NTP,4,239臺灣新北市鶯歌區中正三路278號,0226771300,0.0,4.6,7.0,2023-08-18,121.328898,24.9360683,https://maps.google.com/?cid=17819326260165638416,,ChIJ9dHkBD8ZaDQREHn2odL2Svc,2025/10/30 09:43:54,15,0.3333333333333333,58.5,95.75,83.33333333333334,4.08,0.5,0.412029520295203
sal0006,三峽北大QMO寵物美容 貓狗美容,OPERATIONAL,NTP009,NTP,4,"1樓 No. 13號, 1樓, No. 13號中華路75巷三峽區新北市臺灣 237",0286713013,43.0,4.6,57.0,2024-11-07,121.3728286,24.9299633,https://maps.google.com/?cid=11716146678371440082,https://www.facebook.com/QMOpet/,ChIJFfwMRewbaDQR0tWzRFQdmKI,2025/10/30 09:43:54,16,0.34782608695652173,106.75,95.75,99.57608695652175,4.6,0.6279761904761905,0.5777380952380952
sal0007,哈哈窩寵物精品館(新北三峽店),OPERATIONAL,NTP009,NTP,4,237臺灣新北市三峽區文化路66號,0226742799,84.0,4.3,101.0,2025-07-22,121.3723806,24.9362152,https://maps.google.com/?cid=16502815234519480600,https://www.facebook.com/%E5%93%88%E5%93%88%E7%AA%A9%E5%AF%B5%E7%89%A9%E7%B2%BE%E5%93%81%E9%A4%A8-%E4%B8%89%E5%B3%BD%E5%BA%97-1136920036421284,ChIJbwWMy_MbaDQRGDlwJwXHBeU,2025/10/30 09:43:54,16,0.34782608695652173,106.75,95.75,99.57608695652175,4.6,0.75,0.667340269874817
sal0008,台北寵物美容 寵物美容教學 台北寵物美容教學,OPERATIONAL,NTP009,NTP,4,237臺灣新北市三峽區國學街1號,0956000075,63.0,4.2,124.0,2022-07-21,121.3734075,24.9415987,https://maps.google.com/?cid=11378918088627659057,http://www.amopetgrooming.com/,ChIJjTvRsfUbaDQRMSHrqLYJ6p0,2025/10/30 09:43:54,16,0.34782608695652173,106.75,95.75,99.57608695652175,4.6,0.6875,0.6019958432592737
sal0009,幸福狗窩,OPERATIONAL,NTP009,NTP,4,"No. 165, No. 165號國光街三峽區新北市臺灣 237",0226738299,52.5,3.8,19.0,2018-04-15,121.3715421,24.9394231,https://maps.google.com/?cid=7109624230124698862,,ChIJw74CZXUcaDQR7rwXo5F1qmI,2025/10/30 09:43:54,16,0.34782608695652173,106.75,95.75,99.57608695652175,4.6,0.65625,0.586925359794665
sal0010,浪花寵藝寵物美容．用品．住宿,OPERATIONAL,NTP009,NTP,4,237臺灣新北市三峽區長泰街48號一樓,0929387655,45.0,4.9,64.0,2023-08-14,121.3780336,24.9325234,https://maps.google.com/?cid=3879997136574198516,https://instagram.com/groomer.mei?igshid=MWI4MTIyMDE=,ChIJeza4mE4baDQR9LIJr9aE2DU,2025/10/30 09:43:54,16,0.34782608695652173,106.75,95.75,99.57608695652175,4.6,0.6339285714285714,0.5980959579658829
sal0011,貓爵士MeowDuke精品貓館｜貓咪旅館｜貓咪美容｜貓舍｜貓咪用品,OPERATIONAL,NTP009,NTP,4,237臺灣新北市三峽區國慶路8號,0286711030,63.0,4.9,129.0,2025-08-02,121.3773269,24.9386062,https://maps.google.com/?cid=16059399406797077566,http://www.meowdukehotel.com/,ChIJ4ca8aN0baDQRPjxClKxy3t4,2025/10/30 09:43:54,16,0.34782608695652173,106.75,95.75,99.57608695652175,4.6,0.6875,0.6557799942935946
sal0012,唯圓寵物沙龍,OPERATIONAL,NTP009,NTP,4,237臺灣新北市三峽區長泰街92號一樓,0927777305,47.5,4.6,37.0,2023-09-21,121.376192,24.9333281,https://maps.google.com/?cid=15277404421900047231,https://www.facebook.com/%E5%94%AF%E5%9C%93%E5%AF%B5%E7%89%A9%E6%BE%A1%E5%A0%82-103663772373464/?ref=pages_you_manage,ChIJIeJTuS8baDQRf5NV6WA-BNQ,2025/10/30 09:43:54,16,0.34782608695652173,106.75,95.75,99.57608695652175,4.6,0.6413690476190477,0.5900595238095239
sal0013,巴寶寵物,OPERATIONAL,NTP009,NTP,4,237臺灣新北市三峽區民生街2號,0226733589,32.0,4.8,22.0,2018-09-23,121.3764508,24.9370434,https://maps.google.com/?cid=657174804827500889,,ChIJsZ4hTvMbaDQRWXEUzQDBHgk,2025/10/30 09:43:54,16,0.34782608695652173,106.75,95.75,99.57608695652175,4.6,0.5952380952380952,0.5519275390084509
sal0014,狗老板寵物(三峽店),OPERATIONAL,NTP009,NTP,4,237臺灣新北市三峽區介壽路一段365號,0226716608,77.0,4.2,386.0,2025-07-05,121.3828905,24.9308515,https://maps.google.com/?cid=227140404087715647,https://www.facebook.com/dogbossshappy/?__tn__=kC-R&eid=ARAVP9NsZAIKdOmhbrv8mijl5TBwP2qhu_LDhxDZruVEhzM-8HRcjUc-a08KKvXcWaDC0hOZVdMTv-ab&hc_ref=ARRJuWdwiFdrR5TSnEW8iFdR27urZK5lf2sH3J--AvRDjMUQC2dy39sBuqZgJhq5I5M&fref=nf&__xts__[0]=68.ARD996RjiNvL8SGv2ZBw7Nbq7rfT9OAZ3hKOf1ehPWhMjCCKknHNIeNKnKYB2Qrur2sHCHTbbq3s3dmoOQu7WuDBrLGjDdXhR-9AXfFUISQO_RZwfDDsh50nbqA22Y1ZHrUNxU-9nWLsDg6KMj92JCU-VdTs4q4do25zKTaKFVof7Ua-qdQtLkWyGmUMrpFBODSC2oDtDmqwX3BVBrN8I-P5y0-Dxom6hUF2zlKvufDxc1Zch1DVJMihkKlbF5kciMP0jl2HMOkQg0Wi5-dYibd5OMnifnylCWf2NHBgx0HSNolVmT0FFd2Uw_xxQ5Rcms5KOCdzkzaIStKSDrVbvB6ZdA,ChIJ66Mr_pEbaDQRP3fJe_72JgM,2025/10/30 09:43:54,16,0.34782608695652173,106.75,95.75,99.57608695652175,4.6,0.7291666666666666,0.6244622963908102
sal0015,UMA寵物精緻美容,OPERATIONAL,NTP007,NTP,4,23854臺灣新北市樹林區大義路22號,0226686009,54.0,5.0,3.0,2021-11-20,121.3791238,24.9441419,https://maps.google.com/?cid=8049578349161346801,https://www.facebook.com/UMAPetBathHouse/,ChIJy7zd1igdaDQR8fZvLdzYtW8,2025/10/30 09:43:54,30,0.5,72.0,95.75,83.875,4.4399999999999995,0.6607142857142857,0.5892696813977388
sal0016,瑪莎寵物美學,OPERATIONAL,NTP007,NTP,4,238臺灣新北市樹林區佳園路三段486號1樓,0289701168,54.0,4.7,44.0,2023-05-02,121.3829499,24.9445823,https://maps.google.com/?cid=16724034573517553459,http://line.me/ti/p/%40tnk3143c,ChIJ1_S2g3YcaDQRM3_dPda0F-g,2025/10/30 09:43:54,30,0.5,72.0,95.75,83.875,4.4399999999999995,0.6607142857142857,0.5985360983102918
sal0017,Bojingchongwu Park,OPERATIONAL,NTP009,NTP,4,237臺灣新北市三峽區大德路157號,0226740190,39.0,5.0,5.0,2021-08-23,121.37555,24.9453101,https://maps.google.com/?cid=12344725401596142587,https://www.facebook.com/%E5%95%B5%E9%9D%9A%E5%AF%B5%E7%89%A9%E5%85%AC%E5%9C%92-172469309526637/,ChIJq3Z55wocaDQR-yPh-1hGUas,2025/10/30 09:43:54,16,0.34782608695652173,106.75,95.75,99.57608695652175,4.6,0.6160714285714286,0.5691421666889394
sal0018,Go Go Shower,OPERATIONAL,NTP009,NTP,4,237臺灣新北市三峽區大德路8號,0235012388,40.0,4.3,55.0,2024-07-28,121.378464,24.942017,https://maps.google.com/?cid=11445129473600987385,https://www.facebook.com/DogCatSPA/,ChIJ76F4mIobaDQR-SBXCp5E1Z4,2025/10/30 09:43:54,16,0.34782608695652173,106.75,95.75,99.57608695652175,4.6,0.6190476190476191,0.5563079416423062
sal0019,Q比熊,OPERATIONAL,NTP007,NTP,4,238臺灣新北市樹林區學成路489號,0235018300,40.0,4.1,27.0,2023-05-05,121.37934,24.9454673,https://maps.google.com/?cid=14323513292917562130,https://www.facebook.com/pages/category/Pet-Service/Q%E6%AF%94%E7%86%8A%E5%AF%B5%E7%89%A9%E7%BE%8E%E5%AE%B9-355870647866197/,ChIJIXEX_HQcaDQREtvvX3NXx8Y,2025/10/30 09:43:54,30,0.5,72.0,95.75,83.875,4.4399999999999995,0.6190476190476191,0.5394633596392333
sal0020,合歡寵物旅館,OPERATIONAL,NTP009,NTP,4,23743臺灣新北市三峽區溪東路233巷45弄28號,0987846016,56.0,4.6,59.0,2023-02-11,121.4095016,24.9340679,https://maps.google.com/?cid=5606225546976565262,http://www.dogshotel.tw/,ChIJQ90SF30baDQRDhhCkm5QzU0,2025/10/30 09:43:54,16,0.34782608695652173,106.75,95.75,99.57608695652175,4.6,0.6666666666666666,0.6133333333333333
sal0021,樂心寵物沙龍Pet Salon,OPERATIONAL,NTP008,NTP,4,239臺灣新北市鶯歌區中山路213號,0987686000,60.0,4.9,46.0,2022-07-14,121.346634,24.9569091,https://maps.google.com/?cid=14725012668035997592,https://www.facebook.com/a0987686000?mibextid=LQQJ4d,ChIJaz20RW8faDQRmJ9pTwHBWcw,2025/10/30 09:43:54,15,0.3333333333333333,58.5,95.75,83.33333333333334,4.08,0.6785714285714286,0.5932952871870398
sal0022,萬旺寵物美容,OPERATIONAL,NTP008,NTP,4,"No. 5號, 鶯桃路鶯歌區新北市臺灣 239",0226784977,71.0,4.8,68.0,2018-08-10,121.3439762,24.9502229,https://maps.google.com/?cid=7935797073925943391,,ChIJzWOisVIZaDQRX7DwoGSdIW4,2025/10/30 09:43:54,15,0.3333333333333333,58.5,95.75,83.33333333333334,4.08,0.7113095238095238,0.6264537444933921
sal0023,辰巧行動寵管家,OPERATIONAL,NTP008,NTP,4,239臺灣新北市鶯歌區國華路15號,,132.0,5.0,13.0,2025-08-26,121.3427641,24.9562797,https://maps.google.com/?cid=4857543322855308412,https://lin.ee/3A1kkEg,ChIJtf5yfnOpQjQRfHzcb-p1aUM,2025/10/30 09:43:54,15,0.3333333333333333,58.5,95.75,83.33333333333334,4.08,0.8928571428571428,0.7507414730598121
sal0024,寵窩寵物生活館,OPERATIONAL,NTP008,NTP,4,239臺灣新北市鶯歌區國慶街68號,0286775948,0.0,4.5,29.0,2022-10-10,121.3498751,24.9549177,https://maps.google.com/?cid=4169461737929273966,https://lin.ee/o0am22t,ChIJaTdOXqkeaDQRbnLbIVzn3Dk,2025/10/30 09:43:54,15,0.3333333333333333,58.5,95.75,83.33333333333334,4.08,0.5,0.4188427299703264
sal0025,愛佳寵物美容,OPERATIONAL,NTP008,NTP,4,239臺灣新北市鶯歌區鶯桃路362號,0908437038,52.5,4.7,21.0,2018-07-20,121.334068,24.9628946,https://maps.google.com/?cid=468533236220147002,,ChIJwYLHgrceaDQROrVd9n6QgAY,2025/10/30 09:43:54,15,0.3333333333333333,58.5,95.75,83.33333333333334,4.08,0.65625,0.5518789936102237
sal0026,恬妞寵物SPA生活館,OPERATIONAL,NTP008,NTP,4,239臺灣新北市鶯歌區南雅路449號,0286780939,0.0,5.0,1.0,2014-09-11,121.346214,24.954113,https://maps.google.com/?cid=6639486048085569124,,ChIJN2XqN6weaDQRZG5NG2IxJFw,2025/10/30 09:43:54,15,0.3333333333333333,58.5,95.75,83.33333333333334,4.08,0.5,0.4090909090909091
sal0027,恬妞寵物SPA生活館,OPERATIONAL,NTP008,NTP,4,239臺灣新北市鶯歌區中山路329巷26弄4號,0286780939,40.0,3.6,15.0,2020-05-10,121.3450941,24.956443,https://maps.google.com/?cid=2212071697855697341,https://www.facebook.com/pages/%E6%81%AC%E5%A6%9E%E5%AF%B5%E7%89%A9SPA%E7%94%9F%E6%B4%BB%E9%A4%A8/159663674117930?ref=hl,ChIJN2XqN6weaDQRvVFiOH3bsh4,2025/10/30 09:43:54,15,0.3333333333333333,58.5,95.75,83.33333333333334,4.08,0.6190476190476191,0.49607748184019373
sal0028,寵物精緻美學,OPERATIONAL,NTP008,NTP,4,239臺灣新北市鶯歌區中山路215號,,0.0,1.0,1.0,2022-01-19,121.346466,24.9568264,https://maps.google.com/?cid=2149850058987339004,,ChIJ6wIF7K4eaDQR_PxK_jzN1R0,2025/10/30 09:43:54,15,0.3333333333333333,58.5,95.75,83.33333333333334,4.08,0.5,0.4043478260869565
sal0029,狗狗屋 Go Go House,OPERATIONAL,NTP007,NTP,4,238臺灣新北市樹林區大義路212號,0235018589,42.0,5.0,32.0,2025-08-08,121.3781458,24.9460647,https://maps.google.com/?cid=13161471065627837235,,ChIJS_-a8vQdaDQRM0NUpDPwprY,2025/10/30 09:43:54,30,0.5,72.0,95.75,83.875,4.4399999999999995,0.625,0.5743311758360302
sal0030,喵汪汪澡堂,OPERATIONAL,NTP007,NTP,4,238臺灣新北市樹林區中山路三段181號1樓,0902383258,63.0,4.9,131.0,2025-10-13,121.394533,24.9724185,https://maps.google.com/?cid=13980711876813970961,https://instagram.com/zhirouzeng?igshid=MWI4MTIyMDE=,ChIJb1xR9LgdaDQREd6UBGF3BcI,2025/10/30 09:43:54,30,0.5,72.0,95.75,83.875,4.4399999999999995,0.6875,0.6490607911576497
sal0031,Piggy Lilugu Pet Salon,OPERATIONAL,NTP009,NTP,4,237臺灣新北市三峽區大義路223號,0226725688,45.0,4.6,98.0,2024-04-22,121.3774773,24.9457046,https://maps.google.com/?cid=3793920051649459736,https://www.facebook.com/Piggylilugu/?ref=bookmarks,ChIJFa4kpZYdaDQRGDbMmC-2pjQ,2025/10/30 09:43:54,16,0.34782608695652173,106.75,95.75,99.57608695652175,4.6,0.6339285714285714,0.5832142857142857
sal0032,PETS IN the WOOF,OPERATIONAL,NTP007,NTP,4,238臺灣新北市樹林區佳園路三段173號,0226686999,40.0,4.1,80.0,2023-09-03,121.3855768,24.9482252,https://maps.google.com/?cid=9340015838623026867,,ChIJK0WkAnEcaDQRs86lcetmnoE,2025/10/30 09:43:54,30,0.5,72.0,95.75,83.875,4.4399999999999995,0.6190476190476191,0.5291643601758018
sal0033,Siao Tian Cyuan Pet Supplies,OPERATIONAL,NTP007,NTP,4,238臺灣新北市樹林區桃子腳路88號,0226688345,40.0,3.5,15.0,2024-01-17,121.3840304,24.9500345,https://maps.google.com/?cid=17151981695728313653,,ChIJ-67smewbaDQRNWXjJ3oUCO4,2025/10/30 09:43:54,30,0.5,72.0,95.75,83.875,4.4399999999999995,0.6190476190476191,0.5320585154415749
sal0034,維多利亞貓舍 (英短，布偶，曼赤肯)晚上時段採預約制,OPERATIONAL,NTP009,NTP,4,23741臺灣新北市三峽區大德路200號,0286721011,38.0,5.0,184.0,2023-08-05,121.3756841,24.9457743,https://maps.google.com/?cid=12308855951073956034,https://www.victoriacats.com/,ChIJ1REH7KodaDQRwlA3u0XX0ao,2025/10/30 09:43:54,16,0.34782608695652173,106.75,95.75,99.57608695652175,4.6,0.6130952380952381,0.5958724530864131
sal0035,寶貝狗狗,OPERATIONAL,NTP007,NTP,4,237臺灣新北市樹林區學林路104號,0289705299,0.0,5.0,2.0,2024-12-10,121.3794825,24.949338,https://maps.google.com/?cid=81236186835721674,,ChIJAYm5DnMcaDQRyh1Aq-GbIAE,2025/10/30 09:43:54,30,0.5,72.0,95.75,83.875,4.4399999999999995,0.5,0.44530422125181945
sal0036,哈哈窩寵物精品館(樹林北大店),OPERATIONAL,NTP007,NTP,4,238臺灣新北市樹林區學成路497號京都社區,0289706655,70.0,4.2,94.0,2024-07-03,121.3791885,24.9462661,https://maps.google.com/?cid=11280275250736710074,https://www.facebook.com/hahahousework/,ChIJuT7zXHQcaDQRusHKOJOWi5w,2025/10/30 09:43:54,30,0.5,72.0,95.75,83.875,4.4399999999999995,0.7083333333333334,0.6110323260716796
sal0037,水族先生有限公司,OPERATIONAL,NTP007,NTP,4,238臺灣新北市樹林區柑園街二段246號,0226688034,0.0,4.4,5.0,2017-03-08,121.3775843,24.9531169,https://maps.google.com/?cid=89410578968461581,,ChIJR9fRqHIcaDQRDcGTpnKmPQE,2025/10/30 09:43:54,30,0.5,72.0,95.75,83.875,4.4399999999999995,0.5,0.4437749648382559
sal0038,喵喵寵物澡堂,OPERATIONAL,NTP008,NTP,4,239臺灣新北市鶯歌區,,168.0,0.0,0.0,,121.3420486,24.9517467,https://maps.google.com/?cid=1409968623673280495,,ChIJ2RFPpbIeaDQR7wd-Lv42kRM,2025/10/30 09:43:54,15,0.3333333333333333,58.5,95.75,83.33333333333334,4.08,1.0,0.8160000000000001
sal0039,TBaby甜寶貝寵物用品及客製化商品,OPERATIONAL,NTP008,NTP,4,239臺灣新北市鶯歌區育樂街72號,0286772127,62.0,3.7,3.0,2019-12-13,121.3434398,24.9549698,https://maps.google.com/?cid=16468635674001452808,https://www.facebook.com/TbabyFansClub/,ChIJmR82p-sfaDQRCK8uFORYjOQ,2025/10/30 09:43:54,15,0.3333333333333333,58.5,95.75,83.33333333333334,4.08,0.6845238095238095,0.5567636514065085
sal0040,布拉格寵物沙龍,OPERATIONAL,NTP013,NTP,4,236臺灣新北市土城區中央路四段291號號,0222672291,50.0,4.7,52.0,2025-06-06,121.4113656,24.9520092,https://maps.google.com/?cid=5370380171253389063,,ChIJ0-xg9Y0caDQRBxdc8E9sh0o,2025/10/30 09:43:54,33,0.5238095238095238,71.0,95.75,82.78571428571428,4.842424242424243,0.6488095238095238,0.6212321756439404
sal0041,星際寵物沙龍（請先來電預約）,OPERATIONAL,NTP013,NTP,4,236臺灣新北市土城區慶安街105號,0222730301,54.0,4.8,23.0,2022-06-28,121.4404773,24.9719891,https://maps.google.com/?cid=13679381987071879036,https://www.facebook.com/interstellarpet/,ChIJCWrjIiodaDQRfOdL1nDt1r0,2025/10/30 09:43:54,33,0.5238095238095238,71.0,95.75,82.78571428571428,4.842424242424243,0.6607142857142857,0.6386729014851905
sal0042,好伙伴寵物樂活館,OPERATIONAL,NTP006,NTP,4,231臺灣新北市新店區安祥路77號,0222008177,45.0,5.0,11.0,2023-05-05,121.4809597,24.9624383,https://maps.google.com/?cid=87196367255450357,,ChIJl6N7Sf0CaDQR9TL3T6LINQE,2025/10/30 09:43:54,34,0.53125,102.0,95.75,99.0703125,4.5323529411764705,0.6339285714285714,0.5805629141961277
sal0043,凱米樂寵物沙龍,OPERATIONAL,NTP006,NTP,4,231臺灣新北市新店區安德街76號,0222126619,60.0,4.9,107.0,2025-01-04,121.5101831,24.96169,https://maps.google.com/?cid=7885450127162734899,https://www.facebook.com/KAIMILE.PET,ChIJy_L-GUkCaDQRM_mXmxy_bm0,2025/10/30 09:43:54,34,0.53125,102.0,95.75,99.0703125,4.5323529411764705,0.6785714285714286,0.6410125123332876
sal0044,沐樂寵物坊,OPERATIONAL,NTP006,NTP,4,231臺灣新北市新店區安和路一段1號,0286667426,60.0,4.8,32.0,2020-07-31,121.5165492,24.9638538,https://maps.google.com/?cid=5932009361316202219,https://www.facebook.com/%E6%B2%90%E6%A8%82%E5%AF%B5%E7%89%A9%E5%9D%8A-305828322864866/,ChIJ7XXHMTgCaDQR60aLwRW7UlI,2025/10/30 09:43:54,34,0.53125,102.0,95.75,99.0703125,4.5323529411764705,0.6785714285714286,0.6239732053636857
sal0045,兜洗Pet Grooming,OPERATIONAL,NTP006,NTP,4,231臺灣新北市新店區安德街74巷8號,0286666620,53.0,4.9,120.0,2022-05-27,121.5101145,24.96202,https://maps.google.com/?cid=11136558342545008465,https://m.facebook.com/%E5%85%9C%E6%B4%97Pet-grooming-701311003400162/?locale2=zh_TW,ChIJa9Jqqk4CaDQRUefO-84AjZo,2025/10/30 09:43:54,34,0.53125,102.0,95.75,99.0703125,4.5323529411764705,0.6577380952380952,0.6227120587456123
sal0046,趴趴熊寵物美容,OPERATIONAL,NTP006,NTP,4,231臺灣新北市新店區安康路二段382-2號,0989517684,48.0,5.0,2.0,2024-11-11,121.5002801,24.9571335,https://maps.google.com/?cid=17316698694491032038,,ChIJ-xmG-6kDaDQR5smb_7ZFUfA,2025/10/30 09:43:54,34,0.53125,102.0,95.75,99.0703125,4.5323529411764705,0.6428571428571428,0.5839208790109535
sal0047,白日夢寵物美容工作室,OPERATIONAL,NTP006,NTP,4,231臺灣新北市新店區僑信路38巷14號,0222151511,45.0,4.8,42.0,2025-04-27,121.4987905,24.9508474,https://maps.google.com/?cid=4057960792604006448,https://www.facebook.com/share/1Y7pgejZeX/?mibextid=wwXIfr,ChIJZ0J4dOUDaDQRMNifQ9fFUDg,2025/10/30 09:43:54,34,0.53125,102.0,95.75,99.0703125,4.5323529411764705,0.6339285714285714,0.5847405144563225
sal0048,三福寵物,OPERATIONAL,NTP006,NTP,4,231046臺灣新北市新店區安德街169號,0222128280,73.0,4.1,87.0,2024-02-22,121.5086442,24.959186,https://maps.google.com/?cid=12800348904265973277,,ChIJo0B_90sCaDQRHX7VX4L5o7E,2025/10/30 09:43:54,34,0.53125,102.0,95.75,99.0703125,4.5323529411764705,0.7172619047619048,0.6211774653494098
sal0049,KOMA PET,OPERATIONAL,NTP006,NTP,4,231臺灣新北市新店區安康路二段155號,0286663456,45.0,4.4,27.0,2025-04-05,121.510589,24.959459,https://maps.google.com/?cid=4216815426511675755,https://www.facebook.com/komapet155/?ref=py_c,ChIJdegkeuMDaDQRa6Gd7EkjhTo,2025/10/30 09:43:54,34,0.53125,102.0,95.75,99.0703125,4.5323529411764705,0.6339285714285714,0.5710437971898186
sal0050,金吉兒寵物沙龍旅店,OPERATIONAL,NTP006,NTP,4,231臺灣新北市新店區安康路二段77號,0222111511,63.0,4.2,65.0,2022-05-03,121.5137216,24.9629634,https://maps.google.com/?cid=9833106900280967478,https://m.facebook.com/gingerpetshop/,ChIJs7PiG0gCaDQRNoGwtaA2dog,2025/10/30 09:43:54,34,0.53125,102.0,95.75,99.0703125,4.5323529411764705,0.6875,0.6050940694000566
sal0051,我們這一家,OPERATIONAL,NTP006,NTP,4,231臺灣新北市新店區北宜路一段201號,0282171717,37.5,4.8,142.0,2025-10-17,121.5473448,24.9523471,https://maps.google.com/?cid=3151551468324946077,https://www.facebook.com/ourpetsalon/,ChIJafON0M0BaDQRnYDe4FyPvCs,2025/10/30 09:43:54,34,0.53125,102.0,95.75,99.0703125,4.5323529411764705,0.6116071428571429,0.5736884420659083
sal0052,Poodle Bear 布逗熊寵物店,OPERATIONAL,NTP006,NTP,4,231臺灣新北市新店區三民路32號,0229170076,66.0,4.7,64.0,2024-02-18,121.5367448,24.9713806,https://maps.google.com/?cid=15316108521986454373,https://www.facebook.com/poodlebeargrooming?ref=bookmarks,ChIJE4zB1h8CaDQRZfNVco2_jdQ,2025/10/30 09:43:54,34,0.53125,102.0,95.75,99.0703125,4.5323529411764705,0.6964285714285714,0.6404564916801772
sal0053,petpro佩普洛寵物美容-完全預約制,OPERATIONAL,NTP006,NTP,4,231臺灣新北市新店區新店後街62號,0966385060,45.0,5.0,21.0,2023-12-10,121.5376805,24.9544255,https://maps.google.com/?cid=1253243811976078311,,ChIJuaERejYBaDQR52PKZZtqZBE,2025/10/30 09:43:54,34,0.53125,102.0,95.75,99.0703125,4.5323529411764705,0.6339285714285714,0.5850074480797589
sal0054,波波好室 pet grooming,OPERATIONAL,NTP006,NTP,4,231臺灣新北市新店區中興路一段166號1樓,0289117077,45.0,5.0,48.0,2022-11-08,121.5428157,24.9641468,https://maps.google.com/?cid=2154110100257467416,http://www.facebook.com/bogiihouse,ChIJZQxC0tIBaDQRGGztJLnv5B0,2025/10/30 09:43:54,34,0.53125,102.0,95.75,99.0703125,4.5323529411764705,0.6339285714285714,0.5939886646690549
sal0055,瑞奇馬汀寵物,OPERATIONAL,NTP006,NTP,4,231臺灣新北市新店區北新路一段123號,0229180983,55.0,4.6,142.0,2024-07-31,121.5393277,24.9626791,https://maps.google.com/?cid=13048825746971894231,https://stork.pet/story/rickymartinpet/,ChIJ8dgqKIoBaDQR1yE7mOG9FrU,2025/10/30 09:43:54,34,0.53125,102.0,95.75,99.0703125,4.5323529411764705,0.6636904761904762,0.6069050856966567
sal0056,精典犬屋,OPERATIONAL,NTP006,NTP,4,231臺灣新北市新店區中興路一段175號,0229175686,45.0,4.7,24.0,2022-12-08,121.542853,24.964737,https://maps.google.com/?cid=6317216147816815490,,ChIJKffaeIwBaDQRgpv7y51Cq1c,2025/10/30 09:43:54,34,0.53125,102.0,95.75,99.0703125,4.5323529411764705,0.6339285714285714,0.5787826018333443
sal0057,Paws Fun 住好玩,OPERATIONAL,NTP006,NTP,4,"No. 14-1號, 環河路新店區新北市臺灣 231",0289123012,56.0,4.7,238.0,2025-02-04,121.537912,24.961838,https://maps.google.com/?cid=4006973704131621381,https://www.facebook.com/Paws-Fun-1656025157995613/?fref=ts,ChIJ5Wq534kBaDQRBbIYo1qhmzc,2025/10/30 09:43:54,34,0.53125,102.0,95.75,99.0703125,4.5323529411764705,0.6666666666666666,0.62009678262312
sal0058,SofyDOG寵物精品-新店店,OPERATIONAL,NTP006,NTP,4,231臺灣新北市新店區中正路137號,0229102855,70.0,4.9,332.0,2025-06-19,121.5416838,24.9714095,https://maps.google.com/?cid=11552103145898231129,http://www.sofydog.com/,ChIJQVJhb_QBaDQRWcXvA5tQUaA,2025/10/30 09:43:54,34,0.53125,102.0,95.75,99.0703125,4.5323529411764705,0.7083333333333334,0.6821966655792572
sal0059,歐嗨呦寵物澡堂,OPERATIONAL,NTP006,NTP,4,231臺灣新北市新店區安民街3巷23號,0286662072,42.0,4.4,34.0,2025-07-11,121.5141947,24.9640817,https://maps.google.com/?cid=12929646544406121428,,ChIJDzZ5ADgCaDQR1AuvJgdVb7M,2025/10/30 09:43:54,34,0.53125,102.0,95.75,99.0703125,4.5323529411764705,0.625,0.5623170290543271
sal0060,Gogo來洗澡寵物美容,OPERATIONAL,NTP006,NTP,4,231臺灣新北市新店區北宜路二段175號,0222170003,35.0,4.8,16.0,2023-01-10,121.552443,24.9533424,https://maps.google.com/?cid=13904427619393049942,,ChIJIVFS_goBaDQRVpUNQ0Bz9sA,2025/10/30 09:43:54,34,0.53125,102.0,95.75,99.0703125,4.5323529411764705,0.6041666666666666,0.5521561380509838
sal0061,爵寵寵物沙龍,OPERATIONAL,NTP006,NTP,4,23153臺灣新北市新店區安康路一段65號,0222113030,54.0,4.0,21.0,2021-05-08,121.5303365,24.9608153,https://maps.google.com/?cid=7941164444819772751,https://www.facebook.com/pet.salon0222113030/,ChIJe0Op7yUCaDQRT9VxDP2uNG4,2025/10/30 09:43:54,34,0.53125,102.0,95.75,99.0703125,4.5323529411764705,0.6607142857142857,0.5866146145165074
sal0062,格樂寵物美容坊,OPERATIONAL,NTP006,NTP,4,231臺灣新北市新店區安民街123號,0952508985,101.5,2.2,10.0,2022-06-30,121.5162872,24.9686588,https://maps.google.com/?cid=11474021518458633813,https://line.me/ti/p/5dpDoYL18L,ChIJjajDMj8CaDQRVT7qcMfpO58,2025/10/30 09:43:54,34,0.53125,102.0,95.75,99.0703125,4.5323529411764705,0.8020833333333333,0.6927615483644213
sal0063,尾巴搖搖寵物自助澡堂/預約制自助洗,OPERATIONAL,NTP006,NTP,4,231臺灣新北市新店區大新街3-1號,0282171551,44.0,5.0,181.0,2025-09-03,121.54354,24.968746,https://maps.google.com/?cid=146329380444740325,https://happytails999com.wordpress.com/,ChIJBXDy2BkBaDQR5Zqc1cvdBwI,2025/10/30 09:43:54,34,0.53125,102.0,95.75,99.0703125,4.5323529411764705,0.6309523809523809,0.6100776328551449
sal0064,接狗接貓,OPERATIONAL,NTP006,NTP,4,231臺灣新北市新店區三民路60巷5號,0289111170,39.0,4.4,79.0,2023-10-09,121.5353573,24.9726091,https://maps.google.com/?cid=17044167678621625576,,ChIJ25tCsR8CaDQR6KxvKDMMiew,2025/10/30 09:43:54,34,0.53125,102.0,95.75,99.0703125,4.5323529411764705,0.6160714285714286,0.5512157685980549
sal0065,圓圓寵物沙龍,OPERATIONAL,NTP006,NTP,4,231臺灣新北市新店區安康路一段65號,0222113030,45.0,0.0,0.0,,121.5303365,24.9608153,https://maps.google.com/?cid=10865590695756167679,,ChIJtXYPnsMDaDQR__lVXytVypY,2025/10/30 09:43:54,34,0.53125,102.0,95.75,99.0703125,4.5323529411764705,0.6339285714285714,0.5746376050420168
sal0066,Fenhongniuniuchongwuyi Station,OPERATIONAL,NTP008,NTP,4,239臺灣新北市鶯歌區鳳福路175號,0286777754,48.0,4.7,90.0,2025-06-14,121.3305947,24.9753447,https://maps.google.com/?cid=14222808364178040399,https://www.facebook.com/smallPinkCow/,ChIJf02uTGUeaDQRT2ZJ_9mQYcU,2025/10/30 09:43:54,15,0.3333333333333333,58.5,95.75,83.33333333333334,4.08,0.6428571428571428,0.5659615384615384
sal0067,小皮球寵物美容-鶯歌寵物美容|鳳鳴寵物美容|寵物洗澡|寵物洗澡|貓咪洗澡|貓咪洗澡|洗狗推薦|洗狗推薦,OPERATIONAL,NTP008,NTP,4,239臺灣新北市鶯歌區鳳五路188號一樓,,40.0,5.0,79.0,2025-10-16,121.3295329,24.9737197,https://maps.google.com/?cid=7146716291306569764,https://www.facebook.com/petsalon.pichuuu,ChIJyyf8vNsfaDQRJEDTHZo8LmM,2025/10/30 09:43:54,15,0.3333333333333333,58.5,95.75,83.33333333333334,4.08,0.6190476190476191,0.5605749486652978
sal0068,要確定欸寵物美容｜每月休息日公布於IG,OPERATIONAL,NTP008,NTP,4,239臺灣新北市鶯歌區鳳吉一街221號,0955151336,56.0,4.7,95.0,2025-09-13,121.3301934,24.9760322,https://maps.google.com/?cid=5606902047636848540,https://lin.ee/ep7OlYK,ChIJ56SRQVUfaDQRnP_Np7S3z00,2025/10/30 09:43:54,15,0.3333333333333333,58.5,95.75,83.33333333333334,4.08,0.6666666666666666,0.5880373831775701
sal0069,日日好日寵物沙龍-板橋寵物美容|寵物洗澡|寵物沙龍|狗狗洗澡|寵物剃毛|寵物洗護|狗狗美容|寵物皮毛養護,OPERATIONAL,NTP001,NTP,4,220臺灣新北市板橋區滿平街50號,0226836310,45.0,5.0,19.0,2025-01-24,121.4268833,24.9896344,https://maps.google.com/?cid=12027041050415908815,https://www.facebook.com/profile.php?id=100063872475284&mibextid=LQQJ4d,ChIJOfDNJ9QdaDQRz8cUBR2i6KY,2025/10/30 09:43:54,49,0.620253164556962,121.0,95.75,111.41139240506328,4.883673469387755,0.6339285714285714,0.6213287854712725
sal0070,雲朵SKY@寵物美容 LINE：lovesky2003,OPERATIONAL,NTP001,NTP,4,220臺灣新北市板橋區存德街27號,0916425741,86.0,5.0,96.0,2024-01-02,121.4306089,24.9917491,https://maps.google.com/?cid=10244337830540269223,https://www.facebook.com/profile.php?id=100094676735051&mibextid=LQQJ4d,ChIJl0lRaJ4daDQRp9Zy5PoyK44,2025/10/30 09:43:54,49,0.620253164556962,121.0,95.75,111.41139240506328,4.883673469387755,0.7559523809523809,0.7465052441243545
sal0071,Ohana寵物美容 板橋寵物美容 板橋洗狗 板橋洗貓 板橋幼犬美容 樹林洗貓洗狗 樹林寵物美容,OPERATIONAL,NTP001,NTP,4,220臺灣新北市板橋區金門街16號,0979512113,54.0,5.0,33.0,2025-04-12,121.4332285,24.9944461,https://maps.google.com/?cid=13055737065109161631,https://ohana-pet.weebly.com/,ChIJ3Zhs3IcdaDQRn4a7PrBLL7U,2025/10/30 09:43:54,49,0.620253164556962,121.0,95.75,111.41139240506328,4.883673469387755,0.6607142857142857,0.648855216195382
sal0072,璦芯寵物美容 LINE：@165abuwj,OPERATIONAL,NTP007,NTP,4,238臺灣新北市樹林區樹德街5號2F,0226872223,41.0,5.0,167.0,2025-10-14,121.4228179,24.9913861,https://maps.google.com/?cid=16845430811503282340,https://sites.google.com/view/aixinpet,ChIJ49gFHT4daDQRpMgSeBL-xuk,2025/10/30 09:43:54,30,0.5,72.0,95.75,83.875,4.4399999999999995,0.6220238095238095,0.5987321636178139
sal0073,雪之犬專業寵物美容店,OPERATIONAL,NTP007,NTP,4,238臺灣新北市樹林區中華路153號ㄧ樓,0286855382,72.0,4.4,131.0,2025-06-29,121.4213439,24.9821393,https://maps.google.com/?cid=6453091335277995180,,ChIJG4nL6xgdaDQRrGRlJmH8jVk,2025/10/30 09:43:54,30,0.5,72.0,95.75,83.875,4.4399999999999995,0.7142857142857143,0.6308019612731655
sal0074,吉の毛寶澡堂—板橋寵物店/板橋寵物美容/樹林寵物店/樹林寵物美容/寵物用品,OPERATIONAL,NTP001,NTP,4,220臺灣新北市板橋區溪北路148號,0286853285,45.0,5.0,32.0,2023-11-18,121.4302958,24.9883189,https://maps.google.com/?cid=6081090938114522277,https://www.instagram.com/jimmy_pet_baby?igsh=ZWV6NzVmY3R5bGIw&utm_source=qr,ChIJGQGB6gYdaDQRpbwpPf1fZFQ,2025/10/30 09:43:54,49,0.620253164556962,121.0,95.75,111.41139240506328,4.883673469387755,0.6339285714285714,0.6224709347433627
sal0075,草妮瑪寵物美容(無固定公休日/請先來電預約）,OPERATIONAL,NTP001,NTP,4,220臺灣新北市板橋區溪崑二街6號1樓,0286875432,63.0,4.9,34.0,2023-05-24,121.4289821,24.9920927,https://maps.google.com/?cid=13631779286840877186,https://lin.ee/2Ikgum1,ChIJQSW1PlYdaDQRgqCtgAnPLb0,2025/10/30 09:43:54,49,0.620253164556962,121.0,95.75,111.41139240506328,4.883673469387755,0.6875,0.6720300026648309
sal0076,毛寓所寵物美容旅店,OPERATIONAL,NTP001,NTP,4,220100臺灣新北市板橋區溪北路30號,0226834899,47.5,4.9,198.0,2025-06-23,121.4269557,24.9902512,https://maps.google.com/?cid=3152396738123529494,https://www.maoshower.com/,ChIJLVJZNjEdaDQRFv3zliGQvys,2025/10/30 09:43:54,49,0.620253164556962,121.0,95.75,111.41139240506328,4.883673469387755,0.6413690476190477,0.6277875731593832
sal0077,和禾寵物澡堂,OPERATIONAL,NTP007,NTP,4,238臺灣新北市樹林區名園街40號,0286857928,52.0,0.0,0.0,,121.4195222,24.9788361,https://maps.google.com/?cid=12706669432691287742,,ChIJbWQVIDMdaDQRvubgtYYoV7A,2025/10/30 09:43:54,30,0.5,72.0,95.75,83.875,4.4399999999999995,0.6547619047619048,0.5814285714285714
sal0078,米朵栗寵物美容工坊,OPERATIONAL,NTP007,NTP,4,238臺灣新北市樹林區復興路241號,0286752010,54.0,4.8,25.0,2021-01-21,121.4196997,24.9903978,https://maps.google.com/?cid=5125465163502126038,https://m.facebook.com/midorispa/?locale2=zh_TW,ChIJqeRziRYdaDQR1gMvC2lPIUc,2025/10/30 09:43:54,30,0.5,72.0,95.75,83.875,4.4399999999999995,0.6607142857142857,0.5976376906675414
sal0079,亞尼客寵物美容店,OPERATIONAL,NTP001,NTP,4,220臺灣新北市板橋區大觀路三段142號,0226812885,57.0,5.0,10.0,2024-11-21,121.4315136,24.9934363,https://maps.google.com/?cid=1855827398872792483,,ChIJrWV9-iYdaDQRo_0_yi85wRk,2025/10/30 09:43:54,49,0.620253164556962,121.0,95.75,111.41139240506328,4.883673469387755,0.6696428571428572,0.655346605823092
sal0080,有狗好寵物生活館,OPERATIONAL,NTP007,NTP,4,238臺灣新北市樹林區樹新路34巷36-2號,0226829988,48.0,4.8,216.0,2019-10-04,121.4276182,24.9945961,https://maps.google.com/?cid=17083992417925975005,https://www.facebook.com/goodog9988/,ChIJw6D5WD8daDQR3cvx15aIFu0,2025/10/30 09:43:54,30,0.5,72.0,95.75,83.875,4.4399999999999995,0.6428571428571428,0.6041967486452687
sal0081,Miona寵物美容,OPERATIONAL,NTP007,NTP,4,238臺灣新北市樹林區太順街110巷7號,0286853500,45.0,4.9,48.0,2021-08-28,121.415919,24.977952,https://maps.google.com/?cid=14683440993558580517,https://www.facebook.com/Miona1314/,ChIJ4S0euR0daDQRJc13lckPxss,2025/10/30 09:43:54,30,0.5,72.0,95.75,83.875,4.4399999999999995,0.6339285714285714,0.5841564658090723
sal0082,樂荳寵物沙龍(預約+Line)@390iwhhp,OPERATIONAL,NTP007,NTP,4,238臺灣新北市樹林區大安路541號號1樓,0963902131,54.0,5.0,47.0,2024-04-21,121.412729,24.9842252,https://maps.google.com/?cid=2327934056572544200,https://page.line.me/390iwhhp,ChIJU_0mCAYdaDQRyGSKxrB7TiA,2025/10/30 09:43:54,30,0.5,72.0,95.75,83.875,4.4399999999999995,0.6607142857142857,0.6132892618365396
sal0083,咕毛寵物美容坊,OPERATIONAL,NTP007,NTP,4,238臺灣新北市樹林區東華街29號,0286868988,45.0,4.8,38.0,2022-02-07,121.4148702,24.982217,https://maps.google.com/?cid=10738527738565633990,https://www.facebook.com/%E5%92%95%E6%AF%9B%E5%AF%B5%E7%89%A9%E7%BE%8E%E5%AE%B9%E5%9D%8A-495527717315592/,ChIJc3_6hRsdaDQRxifiQxXqBpU,2025/10/30 09:43:54,30,0.5,72.0,95.75,83.875,4.4399999999999995,0.6339285714285714,0.5771597802197801
sal0084,金錢狗寵物美容精品,OPERATIONAL,NTP007,NTP,4,238臺灣新北市樹林區鎮前街425巷3號,0286846363,40.0,4.5,20.0,2024-06-27,121.4139709,24.9826632,https://maps.google.com/?cid=3702020975717128780,https://www.facebook.com/MoneyDog.Pet/,ChIJcaLPeRsdaDQRTBqqmHY4YDM,2025/10/30 09:43:54,30,0.5,72.0,95.75,83.875,4.4399999999999995,0.6190476190476191,0.5511445762420492
sal0085,名家寵物生活館,OPERATIONAL,NTP001,NTP,4,220臺灣新北市板橋區大觀路三段133巷2號,0226819191,56.0,4.5,11.0,2018-12-20,121.4330561,24.9939582,https://maps.google.com/?cid=14748360145965368439,,ChIJm8mJZyMdaDQRd0TLn2mzrMw,2025/10/30 09:43:54,49,0.620253164556962,121.0,95.75,111.41139240506328,4.883673469387755,0.6666666666666666,0.6465594959352853
sal0086,艾妮塔寵物精品美容,OPERATIONAL,NTP007,NTP,4,238臺灣新北市樹林區日新街94號,0286752218,52.0,4.3,29.0,2023-12-27,121.4215114,24.9901441,https://maps.google.com/?cid=9745872155642937871,https://www.facebook.com/anitadogs,ChIJJ4AfExYdaDQRD8J39xZLQIc,2025/10/30 09:43:54,30,0.5,72.0,95.75,83.875,4.4399999999999995,0.6547619047619048,0.5767183462532299
sal0087,寵愛有家寵物精品旅館,OPERATIONAL,NTP007,NTP,4,238臺灣新北市樹林區太平路63號1樓,0286846886,66.5,5.0,15.0,2025-04-19,121.4192786,24.9820737,https://maps.google.com/?cid=6030162803952342951,https://www.facebook.com/profile.php?id=61576289365639,ChIJ74GtxLsdaDQRp1da-x5xr1M,2025/10/30 09:43:54,30,0.5,72.0,95.75,83.875,4.4399999999999995,0.6979166666666666,0.631608407079646
sal0088,朵貓貓旅館,OPERATIONAL,NTP001,NTP,4,220臺灣新北市板橋區金門街372巷28號1樓,0226852325,54.0,4.9,121.0,2023-02-03,121.4273339,24.9846967,https://maps.google.com/?cid=2708776344550311381,https://www.facebook.com/%E6%9C%B5%E8%B2%93%E8%B2%93%E6%97%85%E9%A4%A8-Domomo-Cat-Hotel-1940478429590958/,ChIJdZisr2odaDQR1QXn0LuBlyU,2025/10/30 09:43:54,49,0.620253164556962,121.0,95.75,111.41139240506328,4.883673469387755,0.6607142857142857,0.6464657874844297
sal0089,妮妮寵物坊,OPERATIONAL,NTP001,NTP,4,220臺灣新北市板橋區金門街358巷2號,0226818846,48.0,5.0,6.0,2024-01-30,121.4275081,24.9843628,https://maps.google.com/?cid=13971061023813983666,,ChIJrws2SSMdaDQRst28s_ot48E,2025/10/30 09:43:54,49,0.620253164556962,121.0,95.75,111.41139240506328,4.883673469387755,0.6428571428571428,0.6286651753349406
sal0090,Walking Dog,OPERATIONAL,NTP001,NTP,4,220臺灣新北市板橋區和平路101巷9號1樓,0229521311,50.0,4.8,193.0,2025-07-09,121.4621071,24.9951035,https://maps.google.com/?cid=4994645655544216038,https://www.facebook.com/walking.dog.99/,ChIJRQW8-KMCaDQR5jmpzcKLUEU,2025/10/30 09:43:54,49,0.620253164556962,121.0,95.75,111.41139240506328,4.883673469387755,0.6488095238095238,0.6268309216617302
sal0091,沐沐法寓 MUMUFAYU | 寵物美容 | 梅德農夫草本泥,OPERATIONAL,NTP001,NTP,4,"15號, 合宜一路板橋區新北市臺灣 220015",0229653460,54.0,5.0,41.0,2025-05-10,121.4432558,24.9965633,https://maps.google.com/?cid=3780632842413911599,https://www.instagram.com/mumufayu/,ChIJ02xHvWgdaDQRL65BHoqBdzQ,2025/10/30 09:43:54,49,0.620253164556962,121.0,95.75,111.41139240506328,4.883673469387755,0.6607142857142857,0.6494776929975036
sal0092,佳佳寵物美容暨寵物用品店,OPERATIONAL,NTP013,NTP,4,236臺灣新北市土城區中央路一段53號,0222705026,61.0,4.6,197.0,2025-09-13,121.448194,24.990182,https://maps.google.com/?cid=16265793499585278489,https://www.facebook.com/jiajiapets,ChIJw2aSfrUCaDQRGXKjDAK1u-E,2025/10/30 09:43:54,33,0.5238095238095238,71.0,95.75,82.78571428571428,4.842424242424243,0.6815476190476191,0.63680140605147
sal0093,寵牠寵物美容 CHONGTA PET SALON,OPERATIONAL,NTP001,NTP,4,220臺灣新北市板橋區德興街37巷16號1樓,0289668882,63.0,5.0,42.0,2025-07-12,121.4540153,24.9938582,https://maps.google.com/?cid=575334162400088268,https://www.instagram.com/chongta_2025,ChIJhSk0CIsDaDQRzBABWV__-wc,2025/10/30 09:43:54,49,0.620253164556962,121.0,95.75,111.41139240506328,4.883673469387755,0.6875,0.6758840839648703
sal0094,狗勾寓所 |板橋寵物旅館| 寵物安親| 寵物美容| dogsretreat |,OPERATIONAL,NTP001,NTP,4,220臺灣新北市板橋區合宜路131號,0229686722,84.0,5.0,91.0,2025-08-09,121.4472585,24.9980235,https://maps.google.com/?cid=9034930770115699367,https://www.dogsretreat.com.tw/,ChIJV9W_wYADaDQRpyL-kqqFYn0,2025/10/30 09:43:54,49,0.620253164556962,121.0,95.75,111.41139240506328,4.883673469387755,0.75,0.7403957228430911
sal0095,「LoveMood寵物造型職人所」板橋/土城首選優質寵物美容,OPERATIONAL,NTP001,NTP,4,220臺灣新北市板橋區四川路二段91巷18號,0289670826,45.0,5.0,166.0,2025-03-21,121.4532153,24.9944951,https://maps.google.com/?cid=8286357967624605865,https://lin.ee/TtIrH66,ChIJC_MmL3UDaDQRqRD-JasO_3I,2025/10/30 09:43:54,49,0.620253164556962,121.0,95.75,111.41139240506328,4.883673469387755,0.6339285714285714,0.6280053985680356
sal0096,啾兜麥兜寵物美容(星期日可預約-三天前預約)土城寵物美容 土城寵物安親 土城寵物飼料 土城洗貓 土城洗狗/時間彈性,OPERATIONAL,NTP013,NTP,4,236臺灣新北市土城區學成路139號,0222640909,51.0,5.0,64.0,2025-10-03,121.4490704,24.9894706,https://maps.google.com/?cid=3135538897245124992,https://lin.ee/TPu6Ose,ChIJ91YIHgADaDQRgDm3pQOsgys,2025/10/30 09:43:54,33,0.5238095238095238,71.0,95.75,82.78571428571428,4.842424242424243,0.6517857142857143,0.64020071939415
sal0097,Pet Family 寵物澡堂,OPERATIONAL,NTP013,NTP,4,236臺灣新北市土城區廣明街41巷28號1樓,0289666068,60.0,4.9,110.0,2021-03-08,121.4541707,24.9927504,https://maps.google.com/?cid=15030909442497522927,,ChIJhebL94wDaDQR7ywhM4CEmNA,2025/10/30 09:43:54,33,0.5238095238095238,71.0,95.75,82.78571428571428,4.842424242424243,0.6785714285714286,0.661644588584196
sal0098,澡窩寵物美容,OPERATIONAL,NTP001,NTP,4,22058臺灣新北市板橋區合宜一路183號,0229654183,54.0,5.0,148.0,2025-08-09,121.4451735,24.9959311,https://maps.google.com/?cid=17560079583588914652,https://instagram.com/luffy_white26?igshid=YmMyMTA2M2Y=,ChIJ1wsWvI0daDQR3BVoD1jvsfM,2025/10/30 09:43:54,49,0.620253164556962,121.0,95.75,111.41139240506328,4.883673469387755,0.6607142857142857,0.6541124756473662
sal0099,熊嶼寵物,OPERATIONAL,NTP001,NTP,4,220臺灣新北市板橋區合宜一路11號,,54.0,5.0,14.0,2025-06-14,121.443208,24.9967343,https://maps.google.com/?cid=3044708639248443209,,ChIJH3zA-SYdaDQRSWf3NmD6QCo,2025/10/30 09:43:54,49,0.620253164556962,121.0,95.75,111.41139240506328,4.883673469387755,0.6607142857142857,0.6470585507048067
sal0100,Ki Lu Mi寵物美學,OPERATIONAL,NTP013,NTP,4,236臺灣新北市土城區學府路二段25號,0222650355,48.0,5.0,32.0,2025-04-18,121.4493487,24.9815977,https://maps.google.com/?cid=13692270452282540634,https://www.facebook.com/profile.php?id=61553654661842,ChIJcewH3kMDaDQRWsLgfG63BL4,2025/10/30 09:43:54,33,0.5238095238095238,71.0,95.75,82.78571428571428,4.842424242424243,0.6428571428571428,0.6282454197948908
sal0101,可愛屋寵物沙龍/住宿 土城店,OPERATIONAL,NTP013,NTP,4,236臺灣新北市土城區中央路一段45巷7號,0222649688,72.0,4.7,66.0,2024-06-27,121.4489605,24.9901755,https://maps.google.com/?cid=11943030614938205594,https://instagram.com/qhouse_for_pets?igshid=OGQ5ZDc2ODk2ZA==,ChIJFeux2IgDaDQRmr0BQRErvqU,2025/10/30 09:43:54,33,0.5238095238095238,71.0,95.75,82.78571428571428,4.842424242424243,0.7142857142857143,0.6827494477038405
sal0102,本沐寵物spa造型工作室（原三寶寵物美容）,OPERATIONAL,NTP001,NTP,4,220臺灣新北市板橋區信義路223號,0229511795,45.0,4.8,59.0,2024-02-08,121.4598077,24.9913834,https://maps.google.com/?cid=587093123827206226,https://www.facebook.com/%E4%B8%89%E5%AF%B6%E5%AF%B5%E7%89%A9%E7%BE%8E%E5%AE%B9-%E4%B8%89%E5%AF%B6%E8%99%9F-443622622886159/,ChIJSRdQ6CkDaDQRUojL5xXGJQg,2025/10/30 09:43:54,49,0.620253164556962,121.0,95.75,111.41139240506328,4.883673469387755,0.6339285714285714,0.6155071090194931
sal0103,狗師傅寵物美學,OPERATIONAL,NTP013,NTP,4,236臺灣新北市土城區裕民路253號,0934303091,47.5,5.0,71.0,2025-08-02,121.4548214,24.9829487,https://maps.google.com/?cid=14306302174958667939,https://www.facebook.com/%E7%8B%97%E5%B8%AB%E5%82%85%E5%AF%B5%E7%89%A9%E7%BE%8E%E5%AD%B8-Dog-Master-102529054523156/,ChIJb_1TnIIDaDQRo0jPswcyisY,2025/10/30 09:43:54,33,0.5238095238095238,71.0,95.75,82.78571428571428,4.842424242424243,0.6413690476190477,0.6304880979190084
sal0104,毛孩洗澡樂園,OPERATIONAL,NTP013,NTP,4,236臺灣新北市土城區清水路227號,0921179573,60.0,5.0,91.0,2025-02-11,121.4610136,24.9827386,https://maps.google.com/?cid=6470384909211145627,https://www.facebook.com/profile.php?id=61562333308509,ChIJFbPl206pQjQRmxWUGctsy1k,2025/10/30 09:43:54,33,0.5238095238095238,71.0,95.75,82.78571428571428,4.842424242424243,0.6785714285714286,0.668384194241161
sal0105,雲朵朵寵物沙龍Kumomo｜板橋土城寵物美容｜精緻美容造型,OPERATIONAL,NTP001,NTP,4,220臺灣新北市板橋區廣和街35號,0229560189,45.0,4.9,141.0,2024-11-29,121.4628271,24.993716,https://maps.google.com/?cid=1576856135217413453,,ChIJwcVlsskCaDQRTX2H6Uwe4hU,2025/10/30 09:43:54,49,0.620253164556962,121.0,95.75,111.41139240506328,4.883673469387755,0.6339285714285714,0.620336339440009
sal0106,毛孩寵物澡堂,OPERATIONAL,NTP013,NTP,4,236臺灣新北市土城區學士路357號,0930646203,63.0,5.0,25.0,2025-08-27,121.44721,24.9773909,https://maps.google.com/?cid=6821857054890271224,https://page.line.me/846fjnko,ChIJixhWu0MDaDQR-CE6AdkarF4,2025/10/30 09:43:54,33,0.5238095238095238,71.0,95.75,82.78571428571428,4.842424242424243,0.6875,0.6708587364700686
sal0107,寵愛窩SPA寵物沙龍(皮卡丘寵物美容學院) - 新北 土城 板橋寵物美容住宿推薦 寵物洗澡美容 寵物安親住宿 專業寵物美容教學 狗狗貓咪洗澡剪毛 寵物spa 純手吹 手剪 無烘箱 皮毛調理 寵物旅館 狗狗剪毛 洗澡 美容,OPERATIONAL,NTP013,NTP,4,236臺灣新北市土城區學成路156號1樓,0222730085,57.0,4.9,72.0,2025-09-08,121.4482134,24.9894744,https://maps.google.com/?cid=15395784180834913092,https://www.facebook.com/%E5%AF%B5%E6%84%9B%E7%AA%A9spa%E5%AF%B5%E7%89%A9%E6%B2%99%E9%BE%8D-107789541065430/,ChIJBbCDgFkDaDQRREs-YSTQqNU,2025/10/30 09:43:54,33,0.5238095238095238,71.0,95.75,82.78571428571428,4.842424242424243,0.6696428571428572,0.6521258218016409
sal0108,福全寵物美容坊,OPERATIONAL,NTP013,NTP,4,236臺灣新北市土城區廣福街33號1樓,0222656171,60.0,4.9,36.0,2024-10-11,121.4568029,24.9893418,https://maps.google.com/?cid=7984784018208980502,,ChIJRQBLfDMDaDQRFv6PZcKmz24,2025/10/30 09:43:54,33,0.5238095238095238,71.0,95.75,82.78571428571428,4.842424242424243,0.6785714285714286,0.659554266138752
sal0109,樂寶貝寵物澡堂,OPERATIONAL,NTP013,NTP,4,236臺灣新北市土城區青雲路88號,0282613553,0.0,4.8,18.0,2019-03-19,121.4592112,24.9867299,https://maps.google.com/?cid=17905447906956029764,,ChIJz9MihccCaDQRRC9gFgHufPg,2025/10/30 09:43:54,33,0.5238095238095238,71.0,95.75,82.78571428571428,4.842424242424243,0.5,0.48348474110345124
sal0110,B&D寵物沙龍,OPERATIONAL,NTP001,NTP,4,220臺灣新北市板橋區合宜一路205號,0903036017,51.0,4.8,33.0,2023-11-17,121.444993,24.9964433,https://maps.google.com/?cid=13401607848463683980,,ChIJpXmcUksdaDQRjNHDWlUT_Lk,2025/10/30 09:43:54,49,0.620253164556962,121.0,95.75,111.41139240506328,4.883673469387755,0.6517857142857143,0.6341292205341243
sal0111,淋淋洗 寵物美容時光(預約制),OPERATIONAL,NTP013,NTP,4,236臺灣新北市土城區裕民路114巷17號,0933210607,45.0,5.0,14.0,2025-10-13,121.4505152,24.9858163,https://maps.google.com/?cid=17260781986790501119,https://lin.ee/ZPVcW5j,ChIJhb2AfQADaDQR_-ob9MOdiu8,2025/10/30 09:43:54,33,0.5238095238095238,71.0,95.75,82.78571428571428,4.842424242424243,0.6339285714285714,0.6168400744397055
sal0112,囍狗寵物沙龍See Dog/純手吹/日式有機草本泥/皮膚調理,OPERATIONAL,NTP013,NTP,4,236臺灣新北市土城區水源街87號,0222705755,56.0,4.9,43.0,2025-01-21,121.4394281,24.9765544,https://maps.google.com/?cid=2661805477120680423,http://www.facebook.com/profile.php?id=100087910160943,ChIJD49Fb34daDQR56H3hPqh8CQ,2025/10/30 09:43:54,33,0.5238095238095238,71.0,95.75,82.78571428571428,4.842424242424243,0.6666666666666666,0.6482808780594129
sal0113,27號寵物美學-土城 板橋 美容教學 寵物美容,OPERATIONAL,NTP013,NTP,4,236臺灣新北市土城區廣興街27號,0289669898,54.0,4.9,29.0,2024-11-24,121.455563,24.9915567,https://maps.google.com/?cid=2750724949909689642,https://www.facebook.com/stardogs888/,ChIJvXD85TwDaDQRKtUrmsSJLCY,2025/10/30 09:43:54,33,0.5238095238095238,71.0,95.75,82.78571428571428,4.842424242424243,0.6607142857142857,0.6418655380827906
sal0114,卡澄寵物美容寵物住宿,OPERATIONAL,NTP013,NTP,4,236臺灣新北市土城區福仁街14號1樓,0282733068,63.0,4.8,51.0,2024-09-07,121.440146,24.9760436,https://maps.google.com/?cid=3326102637742758322,https://www.facebook.com/profile.php?id=100090632528155,ChIJg5F9ItAdaDQRspklAbqwKC4,2025/10/30 09:43:54,33,0.5238095238095238,71.0,95.75,82.78571428571428,4.842424242424243,0.6875,0.6636096280476953
sal0115,金吉兒寵物沙龍旅店（土城明德店）,OPERATIONAL,NTP013,NTP,4,236臺灣新北市土城區明德路二段235號1樓,0282602006,63.0,4.8,66.0,2023-02-19,121.4455299,24.9838904,https://maps.google.com/?cid=12728232801762569259,https://www.facebook.com/%E9%87%91%E5%90%89%E5%85%92%E5%AF%B5%E7%89%A9%E6%B2%99%E9%BE%8D%E6%97%85%E5%BA%97-%E5%9C%9F%E5%9F%8E%E6%98%8E%E5%BE%B7%E5%BA%97-100210428950755/?ref=pages_you_manage,ChIJJyWqXeEdaDQRK2yIz0vEo7A,2025/10/30 09:43:54,33,0.5238095238095238,71.0,95.75,82.78571428571428,4.842424242424243,0.6875,0.6632457193150904
sal0116,延洗宮寵物精品沙龍,OPERATIONAL,NTP001,NTP,4,220臺灣新北市板橋區四川路二段65巷10號,0222652727,54.0,5.0,6.0,2023-11-06,121.4535942,24.9947951,https://maps.google.com/?cid=312987242977635346,,ChIJu5NdVEYDaDQREizpPD30VwQ,2025/10/30 09:43:54,49,0.620253164556962,121.0,95.75,111.41139240506328,4.883673469387755,0.6607142857142857,0.6461280968720223
sal0117,WANG精緻寵物美容,OPERATIONAL,NTP007,NTP,4,238臺灣新北市樹林區備內街35號,,67.0,4.7,3.0,2017-04-25,121.4122696,24.9871817,https://maps.google.com/?cid=15938981842727590202,,ChIJP8LbpBodaDQROtktoYmjMt0,2025/10/30 09:43:54,30,0.5,72.0,95.75,83.875,4.4399999999999995,0.6994047619047619,0.6223273381294964
sal0118,麗㛥時尚寵物美學,OPERATIONAL,NTP013,NTP,4,236臺灣新北市土城區裕民路214巷13號之 1,0966119968,76.5,4.9,25.0,2024-02-23,121.4528196,24.9838517,https://maps.google.com/?cid=8790343648186721754,https://www.facebook.com/profile.php?id=100089615340060&mibextid=ZbWKwL,ChIJEUQA6zkDaDQR2uXHi_mS_Xk,2025/10/30 09:43:54,33,0.5238095238095238,71.0,95.75,82.78571428571428,4.842424242424243,0.7276785714285714,0.706689186669306
sal0119,Star Cats Hotel 星寵貓旅 ｜貓咪住宿｜洗澡美容｜貓咪美容｜碳酸SPA,OPERATIONAL,NTP013,NTP,4,236臺灣新北市土城區青雲路185之1號,0222628866,66.5,4.9,232.0,2025-10-22,121.4594601,24.9826061,https://maps.google.com/?cid=9983805961229239625,https://starcatshotel.weebly.com/,ChIJj9hjZnwDaDQRSQV_EaCajYo,2025/10/30 09:43:54,33,0.5238095238095238,71.0,95.75,82.78571428571428,4.842424242424243,0.6979166666666666,0.6818447780505303
sal0120,Oscar Pet Supply and Grooming,OPERATIONAL,NTP013,NTP,4,236臺灣新北市土城區中華路一段235號,0222617333,84.0,4.4,814.0,2025-09-17,121.4416139,24.9827731,https://maps.google.com/?cid=11257231883295737855,https://www.etipets.com/,ChIJQapsaTipQjQR_0cLJsG4OZw,2025/10/30 09:43:54,33,0.5238095238095238,71.0,95.75,82.78571428571428,4.842424242424243,0.75,0.6661262807284314
sal0121,小米寵物美容,OPERATIONAL,NTP013,NTP,4,236臺灣新北市土城區學成路100號B1,,48.0,5.0,14.0,2020-11-04,121.4502208,24.9892079,https://maps.google.com/?cid=4032234547791749290,http://www.facebook.com/sry3789m/,ChIJ84qi00gDaDQRqmAvIPVf9Tc,2025/10/30 09:43:54,33,0.5238095238095238,71.0,95.75,82.78571428571428,4.842424242424243,0.6428571428571428,0.6255279628120957
sal0122,臣星寵物美容,OPERATIONAL,NTP013,NTP,4,236臺灣新北市土城區學成路116號,0222636555,54.0,4.8,22.0,2024-04-29,121.4497385,24.9894521,https://maps.google.com/?cid=7470261670678923858,https://www.facebook.com/PetSalonGoGoGo/,ChIJI-YidMoCaDQRUooIDGmzq2c,2025/10/30 09:43:54,33,0.5238095238095238,71.0,95.75,82.78571428571428,4.842424242424243,0.6607142857142857,0.6387147696656899
sal0123,Me妮寵物美容,OPERATIONAL,NTP013,NTP,4,236臺灣新北市土城區立仁街8號1樓,0222632422,40.0,4.8,4.0,2020-10-09,121.460086,24.9835977,https://maps.google.com/?cid=13799835861687355859,https://www.facebook.com/profile.php?id=100054472870458&mibextid=LQQJ4d,ChIJd9_m9sYCaDQR00mS_pndgr8,2025/10/30 09:43:54,33,0.5238095238095238,71.0,95.75,82.78571428571428,4.842424242424243,0.6190476190476191,0.5992961478393578
sal0124,汪仔寵物館,OPERATIONAL,NTP007,NTP,4,"No, No. 10千歲街樹林區新北市臺灣 238",0226757751,62.0,4.8,32.0,2022-10-31,121.4251032,24.9956238,https://maps.google.com/?cid=7564141776493135270,,ChIJK8e7e0AdaDQRpsWQgt46-Wg,2025/10/30 09:43:54,30,0.5,72.0,95.75,83.875,4.4399999999999995,0.6845238095238095,0.6214678687008784
sal0125,狗點子寵物美容學苑,OPERATIONAL,NTP007,NTP,4,238臺灣新北市樹林區日新街69號,0226852867,57.0,4.7,23.0,2019-03-08,121.42218,24.9909519,https://maps.google.com/?cid=8513609249246346132,,ChIJg0rl_BUdaDQRlPvOUYFqJnY,2025/10/30 09:43:54,30,0.5,72.0,95.75,83.875,4.4399999999999995,0.6696428571428572,0.6021365914786968
sal0126,哈米寵物生活舘,OPERATIONAL,NTP013,NTP,4,236臺灣新北市土城區學府路一段98巷17號,0282613838,45.0,4.8,47.0,2019-02-16,121.4555981,24.988559,https://maps.google.com/?cid=9510166110583650136,,ChIJYYfx3rcCaDQRWPdLyLDl-oM,2025/10/30 09:43:54,33,0.5238095238095238,71.0,95.75,82.78571428571428,4.842424242424243,0.6339285714285714,0.6120023670147501
sal0127,毛手毛腳寵物沐浴小舖,OPERATIONAL,NTP013,NTP,4,236臺灣新北市土城區廣福街19號一樓,0222669162,45.0,4.5,34.0,2019-06-28,121.4569711,24.9891209,https://maps.google.com/?cid=12071886918002509449,https://www.facebook.com/pg/miniu002/posts/,ChIJe0aWAsgCaDQRiYY5PDH1h6c,2025/10/30 09:43:54,33,0.5238095238095238,71.0,95.75,82.78571428571428,4.842424242424243,0.6339285714285714,0.6013108873796947
sal0128,愛欣動物醫院美容部,OPERATIONAL,NTP007,NTP,4,238臺灣新北市樹林區樹德街5號2 樓,0226872223,40.0,4.3,23.0,2025-02-20,121.4229023,24.991389,https://maps.google.com/?cid=17044565367125784080,https://lit.link/aixinpet,ChIJLT1tHT4daDQREDZ1OuV1iuw,2025/10/30 09:43:54,30,0.5,72.0,95.75,83.875,4.4399999999999995,0.6190476190476191,0.5459840712893345
sal0129,Q寶寵物沙龍.狗洗澡美容.寵物零食,OPERATIONAL,NTP003,NTP,4,235臺灣新北市中和區錦和路111號,0222450388,42.5,4.9,150.0,2022-02-26,121.490412,24.994863,https://maps.google.com/?cid=11288199708107850147,https://line.me/ti/p/-_7Lw1AJPa,ChIJzeWQDdQDaDQRo8Fvu9O9p5w,2025/10/30 09:43:54,46,0.6052631578947368,89.75,95.75,92.11842105263158,4.717391304347826,0.6264880952380952,0.6052530497121691
sal0130,汎萌毛孩沙龍,OPERATIONAL,NTP001,NTP,4,220臺灣新北市板橋區重慶路339號,0289521021,50.0,4.9,36.0,2023-10-24,121.4641327,24.9981703,https://maps.google.com/?cid=7484924440781942181,https://www.facebook.com/%E6%B1%8E%E8%90%8C%E6%AF%9B%E5%AD%A9%E6%B2%99%E9%BE%8D-112016631740164/,ChIJC-_W0KQDaDQRpW1yPx_L32c,2025/10/30 09:43:54,49,0.620253164556962,121.0,95.75,111.41139240506328,4.883673469387755,0.6488095238095238,0.6342321551190814
sal0131,菲亞到府寵物美容,OPERATIONAL,NTP003,NTP,4,235臺灣新北市中和區民利街61巷31號,0286601681,43.5,4.9,108.0,2022-01-20,121.4787562,24.9980334,https://maps.google.com/?cid=8272225027072865920,,ChIJtfcH0pgCaDQRgDbGgNXYzHI,2025/10/30 09:43:54,46,0.6052631578947368,89.75,95.75,92.11842105263158,4.717391304347826,0.6294642857142857,0.6062926538777098
sal0132,洗澡趣,OPERATIONAL,NTP003,NTP,4,235臺灣新北市中和區民利街42號1樓,0222226909,38.5,5.0,77.0,2024-03-29,121.4795147,24.9989648,https://maps.google.com/?cid=688099192751133810,https://www.facebook.com/happyshowerstudio/,ChIJPaRSooQCaDQRchQq8pGejAk,2025/10/30 09:43:54,46,0.6052631578947368,89.75,95.75,92.11842105263158,4.717391304347826,0.6145833333333334,0.5956619944083432
sal0133,PIG HOUSE豬窩寵物貓狗美容旅館-土城旗艦店,OPERATIONAL,NTP013,NTP,4,236臺灣新北市土城區明峯街6巷35號1樓,0222624132,54.0,5.0,228.0,2025-08-09,121.465945,24.9853832,https://maps.google.com/?cid=15490079198788196905,https://www.pighousedogcat.com.tw/,ChIJNzb3tgEDaDQRKRpwGvbQ99Y,2025/10/30 09:43:54,33,0.5238095238095238,71.0,95.75,82.78571428571428,4.842424242424243,0.6607142857142857,0.6551676780279401
sal0134,溫莎城堡寵物沙龍 ‧ Pets' Windsor Castle ‧ 全預約制精緻沙龍｜日式有機草本泥SPA 正規認證店｜ 日本艾芙樂 零壓力洗護 嚴選專門店｜ PGS波森朵 貓專業洗護 認證沙龍｜,OPERATIONAL,NTP003,NTP,4,235臺灣新北市中和區連城路347巷4弄6號2樓,0222222830,0.0,4.8,45.0,2019-08-27,121.487999,24.9957134,https://maps.google.com/?cid=5717531873746820384,http://www.facebook.com/petswindsorcastle,ChIJq3ZL4mMCaDQRIB2nRvLAWE8,2025/10/30 09:43:54,46,0.6052631578947368,89.75,95.75,92.11842105263158,4.717391304347826,0.5,0.47445021132078624
sal0135,FUN狗寵物澡堂,OPERATIONAL,NTP013,NTP,4,236臺灣新北市土城區延吉街353巷4號,0223953122,55.0,5.0,90.0,2025-05-17,121.4645807,24.9837261,https://maps.google.com/?cid=11703414169711350714,http://fb.me/258nlbrm,ChIJ4au-29QDaDQRuhPrFC7haqI,2025/10/30 09:43:54,33,0.5238095238095238,71.0,95.75,82.78571428571428,4.842424242424243,0.6636904761904762,0.653668980300853
sal0136,MaBao寵物沙龍,OPERATIONAL,NTP013,NTP,4,23647臺灣新北市土城區延和路3號,0222606569,37.0,5.0,23.0,2021-07-08,121.4636955,24.9878213,https://maps.google.com/?cid=17390575134686412641,,ChIJhWxzfAsDaDQRYX-5HvK7V_E,2025/10/30 09:43:54,33,0.5238095238095238,71.0,95.75,82.78571428571428,4.842424242424243,0.6101190476190477,0.5950716166195573
sal0137,毛很多寵物美容,OPERATIONAL,NTP013,NTP,4,236臺灣新北市土城區金城路三段239之一號239之1號,0282627573,42.0,5.0,18.0,2023-12-10,121.4711886,24.9898542,https://maps.google.com/?cid=13178617082717274735,https://instagram.com/motto__pet?igshid=YmMyMTA2M2Y=,ChIJvZw5nmADaDQRbwJC1mna47Y,2025/10/30 09:43:54,33,0.5238095238095238,71.0,95.75,82.78571428571428,4.842424242424243,0.625,0.6088208448768335
sal0138,可愛谷寵物美容學苑-新北中和(KCT寵物美容指定教學機構，寵物美容一對一教學，寵物美容小班菁英制教學，寵物美容師檢定證照班，寵物美容寵物造型教學，寵物美容學校推薦，中和寵物美容教學培訓),OPERATIONAL,NTP003,NTP,4,235臺灣新北市中和區南山路273號,0222446508,48.0,4.7,57.0,2025-04-24,121.5040807,24.992533,https://maps.google.com/?cid=5612232376500831077,https://www.facebook.com/chen.abel.1,ChIJw6XEtXACaDQRZUNHjpyn4k0,2025/10/30 09:43:54,46,0.6052631578947368,89.75,95.75,92.11842105263158,4.717391304347826,0.6428571428571428,0.6056670263776484
sal0139,熊熊腳寵物美容坊（中和店）,OPERATIONAL,NTP003,NTP,4,235臺灣新北市中和區南華路60號2 樓,0958102374,46.0,4.9,56.0,2025-06-08,121.5046323,24.9972179,https://maps.google.com/?cid=4221114710367423382,https://www.facebook.com/%E7%86%8A%E7%86%8A%E8%85%B3%E5%AF%B5%E7%89%A9%E7%BE%8E%E5%AE%B9%E5%9D%8A-111919853627521/,ChIJMdxe7hADaDQRlkug83ZplDo,2025/10/30 09:43:54,46,0.6052631578947368,89.75,95.75,92.11842105263158,4.717391304347826,0.6369047619047619,0.6097001704575447
sal0140,森の汪星寵物SPA沙龍-貓狗美容|皮毛調理|純手吹不進烘箱,OPERATIONAL,NTP004,NTP,4,234臺灣新北市永和區民族街67巷12號1樓,0229488686,54.0,5.0,63.0,2025-04-06,121.5190549,24.9970842,https://maps.google.com/?cid=1229103663526795592,https://lin.ee/Pd9WST5,ChIJm0DgIwCpQjQRSFmlGEWnDhE,2025/10/30 09:43:54,27,0.47368421052631576,99.5,95.75,97.5263157894737,4.78888888888889,0.6607142857142857,0.6437658209731981
sal0141,朵琍寵物沙龍,OPERATIONAL,NTP003,NTP,4,235臺灣新北市中和區忠孝街109-1號,0229470677,54.0,5.0,22.0,2025-04-08,121.5123403,24.9872677,https://maps.google.com/?cid=7161073150838680526,https://linktr.ee/dolly_pet,ChIJIcIbmeIDaDQRzqtT9hY-YWM,2025/10/30 09:43:54,46,0.6052631578947368,89.75,95.75,92.11842105263158,4.717391304347826,0.6607142857142857,0.630568962504467
sal0142,BaBaGo,OPERATIONAL,NTP003,NTP,4,235臺灣新北市中和區圓通路71號,0222466787,40.0,4.6,264.0,2024-09-12,121.4997222,24.9966601,https://maps.google.com/?cid=2644726875183679361,,ChIJb7N6V3gCaDQRgYdAoxT1syQ,2025/10/30 09:43:54,46,0.6052631578947368,89.75,95.75,92.11842105263158,4.717391304347826,0.6190476190476191,0.5732834128711686
sal0143,丫紫寵物造型坊,OPERATIONAL,NTP003,NTP,4,235臺灣新北市中和區南山路320巷10弄18號,0289413030,46.0,5.0,15.0,2024-09-18,121.5068984,24.9868753,https://maps.google.com/?cid=8773951090270345377,https://azier0208.weebly.com/,ChIJ57vVos8DaDQRoRg3vAdWw3k,2025/10/30 09:43:54,46,0.6052631578947368,89.75,95.75,92.11842105263158,4.717391304347826,0.6369047619047619,0.6059468018767565
sal0144,Pets Park Xingnan,OPERATIONAL,NTP003,NTP,4,235臺灣新北市中和區興南路一段45號,0229476707,91.0,4.6,747.0,2025-06-19,121.5109598,24.9903618,https://maps.google.com/?cid=16095383077833468122,http://www.wonderpet.asia/,ChIJvX-_BN2pQjQR2ugY3qFJXt8,2025/10/30 09:43:54,46,0.6052631578947368,89.75,95.75,92.11842105263158,4.717391304347826,0.7708333333333333,0.7111534460315198
sal0145,茶比寵物沙龍(中和寵物店),OPERATIONAL,NTP003,NTP,4,235臺灣新北市中和區景平路548號,0286688602,56.0,4.9,124.0,2021-02-03,121.5024636,24.994878,https://maps.google.com/?cid=17593793523092274075,https://www.facebook.com/chubbyps/,ChIJ8XeTb38DaDQRm7t7S_61KfQ,2025/10/30 09:43:54,46,0.6052631578947368,89.75,95.75,92.11842105263158,4.717391304347826,0.6666666666666666,0.6429553040831183
sal0146,毛寶寶 SPA 美容 中和店,OPERATIONAL,NTP003,NTP,4,235臺灣新北市中和區圓通路162-4號,0222484114,54.0,4.8,66.0,2023-09-02,121.4974188,24.9952731,https://maps.google.com/?cid=13967311255204209226,https://rink.cc/wj1ns,ChIJj2sLaEMDaDQRSiLDqZXb1cE,2025/10/30 09:43:54,46,0.6052631578947368,89.75,95.75,92.11842105263158,4.717391304347826,0.6607142857142857,0.6279260604929765
sal0147,甜甜寵物生活館,OPERATIONAL,NTP003,NTP,4,235臺灣新北市中和區興南路一段85巷12號,0229470959,45.0,4.7,102.0,2021-03-14,121.5100071,24.9883694,https://maps.google.com/?cid=5509773908229337778,,ChIJhRWQSXICaDQRsrK5cC2mdkw,2025/10/30 09:43:54,46,0.6052631578947368,89.75,95.75,92.11842105263158,4.717391304347826,0.6339285714285714,0.5969392197523359
sal0148,哈奇寵物澡堂,OPERATIONAL,NTP003,NTP,4,235臺灣新北市中和區華新街216號,0229400513,60.0,4.3,98.0,2024-09-14,121.5064105,24.9818567,https://maps.google.com/?cid=10310611594485459711,https://lin.ee/qstbt9m,ChIJEcemzW4CaDQR_2pUAp6mFo8,2025/10/30 09:43:54,46,0.6052631578947368,89.75,95.75,92.11842105263158,4.717391304347826,0.6785714285714286,0.6110181989426078
sal0149,DC寵物沙龍,OPERATIONAL,NTP003,NTP,4,235臺灣中和區安平路120號,0286682036,48.0,4.2,15.0,2024-08-07,121.511961,24.9976654,https://maps.google.com/?cid=10025769446731585479,,ChIJg2K9ot-pQjQRx5dmaDGwIos,2025/10/30 09:43:54,46,0.6052631578947368,89.75,95.75,92.11842105263158,4.717391304347826,0.6428571428571428,0.5972065711401762
sal0150,莫莉家寵物美容旅館-中永和貓狗住宿/美容/安親,OPERATIONAL,NTP003,NTP,4,235臺灣新北市中和區景平路59-17號,0286687012,54.0,4.9,93.0,2025-08-24,121.5208636,24.9908337,https://maps.google.com/?cid=11344515471489177200,https://lin.ee/xmtLQzx,ChIJQT0n-Y8DaDQRcBYJK7fQb50,2025/10/30 09:43:54,46,0.6052631578947368,89.75,95.75,92.11842105263158,4.717391304347826,0.6607142857142857,0.6354922401085334
sal0151,萊德寵物美學館,OPERATIONAL,NTP013,NTP,4,236臺灣新北市土城區延平街77號,0222601679,51.0,4.5,43.0,2023-07-22,121.4675411,24.9932012,https://maps.google.com/?cid=4913337813120203896,https://www.facebook.com/%E8%90%8A%E5%BE%B7%E5%AF%B5%E7%89%A9%E7%BE%8E%E5%AD%B8%E9%A4%A8-2024609674511127/?eid=ARABtEYVcDISmivttiTWaFEM1nLtq97YqmUeToMjGtpVMAO-XH14QZZU9d9wyZtlhTqBW83Iti1YAgoR,ChIJ_Z6eewoDaDQReDyGhLWuL0Q,2025/10/30 09:43:54,33,0.5238095238095238,71.0,95.75,82.78571428571428,4.842424242424243,0.6517857142857143,0.615985223370232
sal0152,寵物姐姐,OPERATIONAL,NTP003,NTP,4,235臺灣新北市中和區景平路578號1樓,0222471077,45.0,4.8,57.0,2025-03-23,121.5016095,24.9956013,https://maps.google.com/?cid=16898757019426308807,,ChIJdTvTIQYDaDQRx0KLyPlxhOo,2025/10/30 09:43:54,46,0.6052631578947368,89.75,95.75,92.11842105263158,4.717391304347826,0.6339285714285714,0.6021013243630293
sal0153,就是狗寵物美容店,OPERATIONAL,NTP004,NTP,4,234臺灣永和區智光街103號,0289432787,53.0,4.6,21.0,2019-02-03,121.516209,24.9966867,https://maps.google.com/?cid=7807708563687520853,,ChIJWdc0RuCpQjQRVbpeWJKNWmw,2025/10/30 09:43:54,27,0.47368421052631576,99.5,95.75,97.5263157894737,4.78888888888889,0.6577380952380952,0.6255644864764536
sal0154,唯心寵物澡堂,OPERATIONAL,NTP013,NTP,4,236臺灣新北市土城區延吉街168巷16號,0222624789,48.0,4.9,37.0,2025-01-04,121.4680217,24.9863131,https://maps.google.com/?cid=5737974194335217575,,ChIJa6IDlM8DaDQRp3e17yBhoU8,2025/10/30 09:43:54,33,0.5238095238095238,71.0,95.75,82.78571428571428,4.842424242424243,0.6428571428571428,0.6248839532560463
sal0155,好的寵物沙龍,OPERATIONAL,NTP003,NTP,4,235臺灣新北市中和區自立路163號,0229401798,60.0,4.5,24.0,2022-04-27,121.5230708,24.9925436,https://maps.google.com/?cid=3595677666649544877,,ChIJuelpNAgCaDQRrZhzf8lp5jE,2025/10/30 09:43:54,46,0.6052631578947368,89.75,95.75,92.11842105263158,4.717391304347826,0.6785714285714286,0.6341195256277162
sal0156,W.E. Dog salon,OPERATIONAL,NTP003,NTP,4,235臺灣新北市中和區景平路403號,0222428920,40.0,5.0,63.0,2020-08-21,121.502246,24.9945869,https://maps.google.com/?cid=2881121645129549097,https://www.facebook.com/WEDOGfloat/,ChIJI-nNvHkCaDQRKcWiFN_M-yc,2025/10/30 09:43:54,46,0.6052631578947368,89.75,95.75,92.11842105263158,4.717391304347826,0.6190476190476191,0.5982687127892496
sal0157,貝比寵物美容,OPERATIONAL,NTP003,NTP,4,235臺灣新北市中和區中正路529號,0222469369,51.0,4.5,6.0,2023-04-28,121.4878574,24.9940692,https://maps.google.com/?cid=574293662718216520,,ChIJObyEWn8CaDQRSMkTIwtN-Ac,2025/10/30 09:43:54,46,0.6052631578947368,89.75,95.75,92.11842105263158,4.717391304347826,0.6517857142857143,0.6132127354180531
sal0158,一三三寵物美容院｜專屬貓咪美容空間｜全店透明隔間｜狗狗洗澡美容｜貓咪洗澡美容｜無烘箱純手吹,OPERATIONAL,NTP003,NTP,4,235臺灣新北市中和區安平路7號,0229453133,57.0,4.8,74.0,2020-11-18,121.5088728,24.9936589,https://maps.google.com/?cid=15972382855451757731,https://www.facebook.com/133petbeautysalon/,ChIJL-DO4bMDaDQRo8y965RNqd0,2025/10/30 09:43:54,46,0.6052631578947368,89.75,95.75,92.11842105263158,4.717391304347826,0.6696428571428572,0.6367219574441918
sal0159,咘咘寵物生活坊,OPERATIONAL,NTP003,NTP,4,235臺灣新北市中和區安平路64號,0229415338,40.0,4.5,71.0,2022-07-16,121.5107872,24.9961566,https://maps.google.com/?cid=2314265206716791345,https://m.facebook.com/profile.php/?id=100063941797858,ChIJ86WDhnUCaDQRMXpmqvHrHSA,2025/10/30 09:43:54,46,0.6052631578947368,89.75,95.75,92.11842105263158,4.717391304347826,0.6190476190476191,0.5723427209982512
sal0160,捉迷腸寵物館,OPERATIONAL,NTP003,NTP,4,235臺灣新北市中和區大勇街25巷15弄13號,0970732392,45.0,5.0,51.0,2023-07-23,121.5155615,24.993374,https://maps.google.com/?cid=8573644285742173645,https://www.facebook.com/dooooooglove/?ref=pages_you_manage,ChIJ5WPmAcMDaDQRzU04gg20-3Y,2025/10/30 09:43:54,46,0.6052631578947368,89.75,95.75,92.11842105263158,4.717391304347826,0.6339285714285714,0.6108660497648181
sal0161,寶吉咪寵物生活館,OPERATIONAL,NTP006,NTP,4,231072臺灣新北市新店區安民街374號,0286666600,54.0,5.0,71.0,2024-04-29,121.5165041,24.9763815,https://maps.google.com/?cid=921064164874623520,https://www.instagram.com/bochimi0286666600?igsh=MTJ4a2hicDZ4eXN5eQ%3D%3D&utm_source=qr,ChIJB678_ukDaDQRIJqxWvpGyAw,2025/10/30 09:43:54,34,0.53125,102.0,95.75,99.0703125,4.5323529411764705,0.6607142857142857,0.6247164058558331
sal0162,喵村食堂 Cat Village,OPERATIONAL,NTP003,NTP,4,235臺灣新北市中和區捷運路30號,0289434085,43.5,4.9,199.0,2024-12-10,121.5086874,24.9901809,https://maps.google.com/?cid=6934032725168232913,https://www.cat-hotel.com.tw/pages/CatFood,ChIJdyZL6nsDaDQR0RmWhAaiOmA,2025/10/30 09:43:54,46,0.6052631578947368,89.75,95.75,92.11842105263158,4.717391304347826,0.6294642857142857,0.6096005637435521
sal0163,寵翻天寵物家族丨網友推薦丨貓狗兔親民精緻美容丨 特殊寵物安親住宿丨名種貓犬舍｜倉鼠｜陸龜｜特殊寵物｜室內設計｜寵物線上實體店鋪｜,OPERATIONAL,NTP003,NTP,4,235臺灣新北市中和區捷運路173號,0286686380,48.0,4.3,97.0,2025-08-06,121.5058544,24.991189,https://maps.google.com/?cid=13854069305653544489,https://line.me/ti/g2/XkMjKTuSYXoaZraPlaLYgGtIkCMwTpcHHHCGCw?utm_source=invitation&utm_medium=link_copy&utm_campaign=default&fbclid=IwY2xjawLgO2tleHRuA2FlbQIxMABicmlkETFtdEZYa0VYSW4zUTg4QUZVAR7VoI8BsCqC0DBg0L8Ko3lJTTtt19PDa9eGKbHfICUElLx3cZTfVjS6h-8enQ_aem_hM_hSn6QpZWTBZdwUrwcAg,ChIJSScIIXECaDQRKUYfqaGKQ8A,2025/10/30 09:43:54,46,0.6052631578947368,89.75,95.75,92.11842105263158,4.717391304347826,0.6428571428571428,0.5789968380153782
sal0164,約宜夏寵物生活館,OPERATIONAL,NTP003,NTP,4,235臺灣新北市中和區民德路300號,0229582515,40.0,4.5,40.0,2018-07-06,121.467295,24.995406,https://maps.google.com/?cid=17913138856481011594,,ChIJWx_WUSWoQjQRijfM0OFAmPg,2025/10/30 09:43:54,46,0.6052631578947368,89.75,95.75,92.11842105263158,4.717391304347826,0.6190476190476191,0.575909186414376
sal0165,布點寵物,OPERATIONAL,NTP003,NTP,4,235臺灣新北市中和區安邦街83號1樓,0222455662,40.0,4.7,34.0,2019-07-17,121.4970397,24.9965332,https://maps.google.com/?cid=13708785188458374611,https://www.facebook.com/budian22455662/,ChIJ35g_S3gCaDQR06UyJH9jP74,2025/10/30 09:43:54,46,0.6052631578947368,89.75,95.75,92.11842105263158,4.717391304347826,0.6190476190476191,0.5834774918971695
sal0166,寵物Bar,OPERATIONAL,NTP003,NTP,4,235臺灣新北市中和區連城路89巷16號,0229265772,45.0,5.0,20.0,2021-05-24,121.4971112,24.9992447,https://maps.google.com/?cid=43343940114093803,https://www.facebook.com/%E5%AF%B5%E7%89%A9-Bar-678701812335530/,ChIJM1TqO-apQjQR65aqeRX9mQA,2025/10/30 09:43:54,46,0.6052631578947368,89.75,95.75,92.11842105263158,4.717391304347826,0.6339285714285714,0.6044894154449256
sal0167,犬之湯屋-中和(寵物美容|狗狗洗澡|寵物住宿|狗狗住宿) 永和(寵物美容|狗狗洗澡|寵物住宿|狗狗住宿),OPERATIONAL,NTP003,NTP,4,235臺灣新北市中和區安樂路50號1樓,0229465698,37.5,4.6,32.0,2018-06-23,121.5120667,24.9930791,https://maps.google.com/?cid=6027909009427933545,https://rink.cc/dl1kn,ChIJ32Qr5XQCaDQRaSlUjU5vp1M,2025/10/30 09:43:54,46,0.6052631578947368,89.75,95.75,92.11842105263158,4.717391304347826,0.6116071428571429,0.5733359088418944
sal0168,MANGO HOUSE,OPERATIONAL,NTP004,NTP,4,234臺灣新北市永和區中正路286巷10號,0229403090,45.0,4.5,35.0,2024-05-21,121.5173549,24.9985009,https://maps.google.com/?cid=10455289604954884350,https://www.facebook.com/mango.house.spa.inn,ChIJWcPyG-GpQjQR_ogrT4CmGJE,2025/10/30 09:43:54,27,0.47368421052631576,99.5,95.75,97.5263157894737,4.78888888888889,0.6339285714285714,0.5974895671797976
sal0169,有一點圓寵物美容,OPERATIONAL,NTP004,NTP,4,234041臺灣新北市永和區民治街103號1樓,0908244263,51.0,5.0,11.0,2023-12-19,121.5165744,24.9988048,https://maps.google.com/?cid=12270977374782129553,https://www.facebook.com/profile.php?id=61552534451406#,ChIJH4RwSnipQjQRkYW-buhES6o,2025/10/30 09:43:54,27,0.47368421052631576,99.5,95.75,97.5263157894737,4.78888888888889,0.6517857142857143,0.6270552264714486
sal0170,樂多寵物美容工作室,OPERATIONAL,NTP003,NTP,4,235臺灣新北市中和區中正路281-2號2 號,0222456116,0.0,5.0,2.0,2020-02-23,121.4947927,24.9936679,https://maps.google.com/?cid=12327394386600122654,,ChIJ_WAAOHwCaDQRHtlxm-GzE6s,2025/10/30 09:43:54,46,0.6052631578947368,89.75,95.75,92.11842105263158,4.717391304347826,0.5,0.47233966897440416
sal0171,HalloPet 寵物精緻沙龍、行為訓練中心,OPERATIONAL,NTP013,NTP,4,236臺灣新北市土城區永豐路13巷26號,,54.0,4.6,57.0,2023-03-03,121.4624052,24.988656,https://maps.google.com/?cid=5226194862743386367,,ChIJwXEpx84CaDQR_3jKwIksh0g,2025/10/30 09:43:54,33,0.5238095238095238,71.0,95.75,82.78571428571428,4.842424242424243,0.6607142857142857,0.6268291094019249
sal0172,Lucky兔子旅館,OPERATIONAL,NTP003,NTP,4,"1樓, No. 14號興南路一段135巷22弄中和區新北市臺灣 235",0909119821,60.0,4.4,197.0,2025-10-06,121.5088565,24.9867223,https://maps.google.com/?cid=17861710692680626655,,ChIJz7PZinMCaDQR33EGVj2L4fc,2025/10/30 09:43:54,46,0.6052631578947368,89.75,95.75,92.11842105263158,4.717391304347826,0.6785714285714286,0.6108671921751513
sal0173,樂果寵物沙龍,OPERATIONAL,NTP003,NTP,4,235臺灣新北市中和區景安路44號,0222439600,45.0,5.0,17.0,2019-11-21,121.5069372,24.9981505,https://maps.google.com/?cid=5651844963286935209,,ChIJGWU-seKpQjQRqWZMogxjb04,2025/10/30 09:43:54,46,0.6052631578947368,89.75,95.75,92.11842105263158,4.717391304347826,0.6339285714285714,0.6036800427734833
sal0174,逗狗窩寵物美容,OPERATIONAL,NTP003,NTP,4,235臺灣新北市中和區中安街178巷13弄18號,0229210555,42.0,4.5,80.0,2020-10-30,121.5104283,24.9984221,https://maps.google.com/?cid=8609601687108933046,https://www.facebook.com/dogworld327/,ChIJ9wxCEd-pQjQRtlW7aR5ze3c,2025/10/30 09:43:54,46,0.6052631578947368,89.75,95.75,92.11842105263158,4.717391304347826,0.625,0.577043579635914
sal0175,寵物美學院,OPERATIONAL,NTP003,NTP,4,235臺灣新北市中和區安平路120號,0286682036,51.0,3.2,13.0,2023-05-31,121.511961,24.9976654,https://maps.google.com/?cid=15802468691340521881,,ChIJg2K9ot-pQjQRmXGVuYylTds,2025/10/30 09:43:54,46,0.6052631578947368,89.75,95.75,92.11842105263158,4.717391304347826,0.6517857142857143,0.5904833713514468
sal0176,PAPA雞寵物生活館 （寵物美容、寵物寄宿）,OPERATIONAL,NTP003,NTP,4,235臺灣新北市中和區成功路99-1號,0229267274,60.0,5.0,13.0,2025-09-18,121.5261772,24.9914732,https://maps.google.com/?cid=7461284330340447677,https://www.facebook.com/share/19kFwxrpe6/,ChIJ57qnP2UDaDQRvXUhHpHOi2c,2025/10/30 09:43:54,46,0.6052631578947368,89.75,95.75,92.11842105263158,4.717391304347826,0.6785714285714286,0.6449606368694843
sal0177,OBO寵物會館,OPERATIONAL,NTP006,NTP,4,231臺灣新北市新店區復興路44之4號1樓,0229138616,45.0,4.8,57.0,2024-06-08,121.5387433,24.9869194,https://maps.google.com/?cid=16262247115821394058,https://www.facebook.com/petclubhouse/,ChIJBckxcf8BaDQRiqgnPJcbr-E,2025/10/30 09:43:54,34,0.53125,102.0,95.75,99.0703125,4.5323529411764705,0.6339285714285714,0.5870309161733472
sal0178,集寵洗澡間-永和店,OPERATIONAL,NTP004,NTP,4,234臺灣新北市永和區成功路二段117號,0232334247,50.0,4.6,44.0,2024-06-07,121.5268548,24.9985846,https://maps.google.com/?cid=9849327368961356453,https://www.facebook.com/petshowerroomm/,ChIJZ9q2XfupQjQRpXJ53w7Xr4g,2025/10/30 09:43:54,27,0.47368421052631576,99.5,95.75,97.5263157894737,4.78888888888889,0.6488095238095238,0.6137950960310575
sal0179,汪樂寵物精品沙龍 One Love,OPERATIONAL,NTP006,NTP,4,231臺灣新北市新店區北新路三段65巷8號1樓,0289116811,54.0,4.9,42.0,2023-01-19,121.5411397,24.981115,https://maps.google.com/?cid=17982305114781456336,https://www.facebook.com/profile.php?id=100088476592459,ChIJ2fuCEbwBaDQR0Bc9QTr7jfk,2025/10/30 09:43:54,34,0.53125,102.0,95.75,99.0703125,4.5323529411764705,0.6607142857142857,0.6133820684778314
sal0180,Yo Go優狗,OPERATIONAL,NTP003,NTP,4,235臺灣新北市中和區自立路58巷2號,0982672424,51.0,4.5,14.0,2020-03-18,121.523458,24.9915609,https://maps.google.com/?cid=7915589266724534164,http://m.facebook.com/Yo-Go%E5%AF%B5%E7%89%A9%E6%BE%A1%E5%A0%82-1506592886261753/,ChIJTxenRQgCaDQRlLcC33_S2W0,2025/10/30 09:43:54,46,0.6052631578947368,89.75,95.75,92.11842105263158,4.717391304347826,0.6517857142857143,0.6112070069274105
sal0181,Mr.Pet 寵物先生（陪著寶貝看世界）,OPERATIONAL,NTP006,NTP,4,231臺灣新北市新店區百忍街7號,0911271595,54.0,5.0,20.0,2025-04-08,121.5348479,24.9754888,https://maps.google.com/?cid=17813151089807903222,https://www.facebook.com/profile.php?id=100066931500615&mibextid=LQQJ4d,ChIJJTJCtnQDaDQR9slcvokGNfc,2025/10/30 09:43:54,34,0.53125,102.0,95.75,99.0703125,4.5323529411764705,0.6607142857142857,0.6092978532860556
sal0182,喵的地球總部(原貓天地),OPERATIONAL,NTP006,NTP,4,231臺灣新北市新店區寶慶街81號,0229180988,54.0,5.0,57.0,2025-02-13,121.5412427,24.9865824,https://maps.google.com/?cid=11807521732043139348,https://www.facebook.com/catwonderland81/,ChIJ88iuiroBaDQRFOki1HS-3KM,2025/10/30 09:43:54,34,0.53125,102.0,95.75,99.0703125,4.5323529411764705,0.6607142857142857,0.6214872823284592
sal0183,波比寵物美容SPA館,OPERATIONAL,NTP005,NTP,4,24243臺灣新北市新莊區民安西路139巷2號1樓,0222038068,66.5,5.0,139.0,2023-12-15,121.4270744,25.0169566,https://maps.google.com/?cid=8898243993545738322,https://www.facebook.com/people/%E6%B3%A2%E6%AF%94%E5%AF%B5%E7%89%A9%E7%BE%8E%E5%AE%B9spa%E9%A4%A8/100089273251124/,ChIJldd_Vw2nQjQRUggMaMTpfHs,2025/10/30 09:43:54,56,0.6511627906976745,121.75,95.75,112.68023255813954,4.8,0.6979166666666666,0.6854180430748381
sal0184,新莊 捲捲毛寵物沐浴館(公休不固定 請加官方line/@pet300),OPERATIONAL,NTP005,NTP,4,242068臺灣新北市新莊區民安西路75巷22號,0222010100,54.0,5.0,26.0,2024-07-22,121.4281221,25.0194108,https://maps.google.com/?cid=8809181494465661644,https://instagram.com/juanmao_pet?igshid=MjEwN2IyYWYwYw==,ChIJdQyBkmynQjQRzAqSa-V_QHo,2025/10/30 09:43:54,56,0.6511627906976745,121.75,95.75,112.68023255813954,4.8,0.6607142857142857,0.6392405866887062
sal0185,愛Q聯萌寵物澡堂,OPERATIONAL,NTP005,NTP,4,24267臺灣新北市新莊區富國路19巷4號,0229068799,54.0,5.0,130.0,2025-06-15,121.41885,25.0266861,https://maps.google.com/?cid=829815695046143885,https://www.facebook.com/%E6%84%9BQ%E8%81%AF%E8%90%8C-%E5%AF%B5%E7%89%A9%E6%BE%A1%E5%A0%82-585898421744079/,ChIJS5RWt42nQjQRje9EZPoYhAs,2025/10/30 09:43:54,56,0.6511627906976745,121.75,95.75,112.68023255813954,4.8,0.6607142857142857,0.6484430861058157
sal0186,Baby love寵物精緻沙龍,OPERATIONAL,NTP007,NTP,4,238臺灣新北市樹林區保安街二段25號,0226852046,62.0,5.0,25.0,2023-01-20,121.4163338,24.9997222,https://maps.google.com/?cid=7186113438285574669,https://www.facebook.com/BettyCarolBabyLove,ChIJVXIy3WkdaDQRDTKsNBk0umM,2025/10/30 09:43:54,30,0.5,72.0,95.75,83.875,4.4399999999999995,0.6845238095238095,0.6254614291181455
sal0187,好狗運貓狗福利中心-樹林店,OPERATIONAL,NTP007,NTP,4,238臺灣新北市樹林區中正路103號,0286751666,77.0,4.1,594.0,2025-10-12,121.425429,25.0007014,https://maps.google.com/?cid=6410924940675511767,,ChIJ_x1dKkIdaDQR1_WnWkQu-Fg,2025/10/30 09:43:54,30,0.5,72.0,95.75,83.875,4.4399999999999995,0.7291666666666666,0.604051724137931
sal0188,Hug Dog 抱抱狗寵物美容&SPA,OPERATIONAL,NTP005,NTP,4,242臺灣新北市新莊區民安西路229巷19號,0222083909,40.0,4.9,44.0,2023-05-27,121.4271346,25.0142456,https://maps.google.com/?cid=2315154501139756629,https://taplink.cc/hugdog,ChIJMerLF18daDQRVfaUqMAUISA,2025/10/30 09:43:54,56,0.6511627906976745,121.75,95.75,112.68023255813954,4.8,0.6190476190476191,0.5977626168653665
sal0189,貓貴妃SPA澡堂,OPERATIONAL,NTP005,NTP,4,242臺灣新北市新莊區中正路726之27號1樓,0911909878,52.0,5.0,15.0,2025-04-16,121.4148536,25.0242417,https://maps.google.com/?cid=10661755151691723545,,ChIJsfY-LQCnQjQRGbPGctIp9pM,2025/10/30 09:43:54,56,0.6511627906976745,121.75,95.75,112.68023255813954,4.8,0.6547619047619048,0.6316483116173476
sal0190,萌寶寵物澡堂,OPERATIONAL,NTP005,NTP,4,"一樓, No. 86號萬安街新莊區新北市臺灣 242",0222027723,54.0,4.8,51.0,2025-09-05,121.4206149,25.0228337,https://maps.google.com/?cid=6592408114220302380,https://lin.ee/7Yax5QG,ChIJ8ccsfYunQjQRLACBdkDwfFs,2025/10/30 09:43:54,56,0.6511627906976745,121.75,95.75,112.68023255813954,4.8,0.6607142857142857,0.6342857142857142
sal0191,PetPark,OPERATIONAL,NTP005,NTP,4,242076臺灣新北市新莊區富國路112號,0222017777,84.0,4.6,526.0,2024-07-14,121.4220035,25.0251794,https://maps.google.com/?cid=5248494279497168850,http://www.wonderpet.asia/,ChIJSxTaQPOnQjQR0jcZT71l1kg,2025/10/30 09:43:54,56,0.6511627906976745,121.75,95.75,112.68023255813954,4.8,0.75,0.6952928003786878
sal0192,建安寵物美容,OPERATIONAL,NTP005,NTP,4,242臺灣新北市新莊區建安街105號,0282015895,45.0,4.5,306.0,2022-08-20,121.4265957,25.0241882,https://maps.google.com/?cid=8298788951262980425,,ChIJzeXOTPKnQjQRSWn3EZU4K3M,2025/10/30 09:43:54,56,0.6511627906976745,121.75,95.75,112.68023255813954,4.8,0.6339285714285714,0.5807723407083245
sal0193,夢想寵物美容新莊民安店,OPERATIONAL,NTP005,NTP,4,24258臺灣新北市新莊區民安路152號1樓,0222040711,48.0,4.7,133.0,2020-03-05,121.424587,25.0247789,https://maps.google.com/?cid=14864051503529772638,,ChIJwQ0Y4vKnQjQRXsYA3xa4R84,2025/10/30 09:43:54,56,0.6511627906976745,121.75,95.75,112.68023255813954,4.8,0.6428571428571428,0.6101825902048349
sal0194,宜加寵物生活館_龍安店,OPERATIONAL,NTP005,NTP,4,242臺灣新北市新莊區龍安路306號,0222025000,77.0,4.3,215.0,2024-11-14,121.4230471,25.0189353,https://maps.google.com/?cid=15351888048302778405,,ChIJ40-PzYqnQjQRJeimltfcDNU,2025/10/30 09:43:54,56,0.6511627906976745,121.75,95.75,112.68023255813954,4.8,0.7291666666666666,0.6521573724147312
sal0195,牦前洗個狗勾寵物美容工作室,OPERATIONAL,NTP007,NTP,4,23830臺灣新北市樹林區保安街二段201號,0226897658,42.5,5.0,14.0,2023-09-16,121.4139236,25.0036169,https://maps.google.com/?cid=724849333352104639,https://www.facebook.com/profile.php?id=100095642431417&mibextid=2JQ9oc,ChIJD80BSJMdaDQRv4Ih1qAuDwo,2025/10/30 09:43:54,30,0.5,72.0,95.75,83.875,4.4399999999999995,0.6264880952380952,0.5663580398953961
sal0196,綠野仙蹤寵物美容,OPERATIONAL,NTP005,NTP,4,242臺灣新北市新莊區中正路887-9號,0229015658,63.0,5.0,8.0,2025-07-20,121.4165704,25.0243562,https://maps.google.com/?cid=13684720567989378792,https://www.instagram.com/meadowpaws.grooming,ChIJNflKfwCnQjQR6B59Edrk6b0,2025/10/30 09:43:54,56,0.6511627906976745,121.75,95.75,112.68023255813954,4.8,0.6875,0.6618229994700583
sal0197,貓狗大棧寵物百貨-新莊龍安店,OPERATIONAL,NTP005,NTP,4,242臺灣新北市新莊區龍安路96號,0229088728,84.0,4.9,627.0,2025-10-27,121.4179198,25.0206156,https://maps.google.com/?cid=14055252078601529746,https://catndog.com.tw/,ChIJxVMiASmnQjQRkmmdLUxJDsM,2025/10/30 09:43:54,56,0.6511627906976745,121.75,95.75,112.68023255813954,4.8,0.75,0.732714953821969
sal0198,11．Pet House寵物美容(限FB提前私訊預約),OPERATIONAL,NTP005,NTP,4,242臺灣新北市新莊區中正路新生巷85弄,0229015060,56.0,4.7,21.0,2019-10-10,121.4173475,25.0223748,https://maps.google.com/?cid=10546561337812778866,https://m.facebook.com/11.pethouse,ChIJ6TTedYynQjQRcv8ynqjpXJI,2025/10/30 09:43:54,56,0.6511627906976745,121.75,95.75,112.68023255813954,4.8,0.6666666666666666,0.6379054494846257
sal0199,舒芙蕾寵物澡堂,OPERATIONAL,NTP005,NTP,4,242臺灣新北市新莊區後港一路76巷5弄11號,0222043689,60.0,4.8,79.0,2022-04-08,121.4278109,25.025722,https://maps.google.com/?cid=18295305978119180607,https://www.facebook.com/share/15ZFv27ES9/?mibextid=wwXIfr,ChIJ35AaE-qpQjQRP9Hfutr75f0,2025/10/30 09:43:54,56,0.6511627906976745,121.75,95.75,112.68023255813954,4.8,0.6785714285714286,0.6514285714285715
sal0200,萌萌狗洗澎澎,OPERATIONAL,NTP005,NTP,4,242臺灣新北市新莊區萬安街3號,0222022306,36.0,4.5,72.0,2023-07-14,121.4217095,25.0249522,https://maps.google.com/?cid=12954298471231096521,,ChIJxVET2YynQjQRyYYdJNPpxrM,2025/10/30 09:43:54,56,0.6511627906976745,121.75,95.75,112.68023255813954,4.8,0.6071428571428571,0.5686549886442849
sal0201,普蘿米寵物美容,OPERATIONAL,NTP005,NTP,4,242臺灣新北市新莊區西盛街424號,0222011573,42.5,4.4,31.0,2020-03-11,121.4270383,25.0121369,https://maps.google.com/?cid=6814657416649576968,https://m.facebook.com/Promi.tw,ChIJ7YdXlV4daDQRCBJhmdCGkl4,2025/10/30 09:43:54,56,0.6511627906976745,121.75,95.75,112.68023255813954,4.8,0.6264880952380952,0.5906150416302968
sal0202,三一一寵物美學｜肌膚管理｜皮毛調理｜皮毛養護｜新莊店,OPERATIONAL,NTP005,NTP,4,242臺灣新北市新莊區建安街101巷2弄1號,0958535311,40.0,5.0,1.0,2025-09-15,121.4268416,25.0239219,https://maps.google.com/?cid=17909675303642443788,https://lin.ee/aVFTBZO,ChIJMVCMNxqnQjQRDLAxlMzyi_g,2025/10/30 09:43:54,56,0.6511627906976745,121.75,95.75,112.68023255813954,4.8,0.6190476190476191,0.594503534958708
sal0203,喜美美寵物美容工作室,OPERATIONAL,NTP005,NTP,4,242臺灣新北市新莊區民安路140號,,0.0,5.0,1.0,2018-12-13,121.424284,25.0252599,https://maps.google.com/?cid=5971744353176475361,,ChIJP5t1_7GnQjQR4VaHfNnl31I,2025/10/30 09:43:54,56,0.6511627906976745,121.75,95.75,112.68023255813954,4.8,0.5,0.4801759320820334
sal0204,J&D DOG 寵物沙龍,OPERATIONAL,NTP005,NTP,4,24259臺灣新北市新莊區建安街101巷2弄1號,0958421039,48.0,5.0,5.0,2023-03-08,121.4269763,25.0238765,https://maps.google.com/?cid=13296297886817549162,https://www.facebook.com/jddoglove/,ChIJGTAjvLWnQjQRanuJM3vwhbg,2025/10/30 09:43:54,56,0.6511627906976745,121.75,95.75,112.68023255813954,4.8,0.6428571428571428,0.6182354062122848
sal0205,食犬實美,OPERATIONAL,NTP005,NTP,4,242臺灣新北市新莊區中正路893巷1-10號,0905168076,84.0,5.0,36.0,2025-04-06,121.4129494,25.0216052,https://maps.google.com/?cid=3798537307692441837,https://elliepets.com.tw/index.html,ChIJyT8BRtirQjQR7aATS44dtzQ,2025/10/30 09:43:54,56,0.6511627906976745,121.75,95.75,112.68023255813954,4.8,0.75,0.7272639111562975
sal0206,頭等艙寵物生活館,OPERATIONAL,NTP005,NTP,4,242臺灣新北市新莊區後港一路76巷12弄2號,0916331158,42.0,4.4,19.0,2021-10-31,121.4272033,25.0258753,https://maps.google.com/?cid=11331521708630560289,,ChIJZ6Fpku2nQjQRIU6N__SmQZ0,2025/10/30 09:43:54,56,0.6511627906976745,121.75,95.75,112.68023255813954,4.8,0.625,0.5927855534460681
sal0207,樹林123寵物超市,OPERATIONAL,NTP007,NTP,4,238臺灣新北市樹林區保安街一段206號,0226852123,82.0,4.4,229.0,2025-04-25,121.4211952,24.9959835,https://maps.google.com/?cid=3455755476502695035,https://m.facebook.com/123Pets/,ChIJWVnGtWodaDQRe8yN50tP9S8,2025/10/30 09:43:54,30,0.5,72.0,95.75,83.875,4.4399999999999995,0.7440476190476191,0.6563576089644807
sal0208,愛逗狗寵物生活館,OPERATIONAL,NTP007,NTP,4,238臺灣新北市樹林區保安街二段6-2號,0226756398,60.0,3.8,10.0,2021-02-12,121.4159418,25.0013939,https://maps.google.com/?cid=2342681555595126345,,ChIJq_bsCpQdaDQRSWYbd3bggiA,2025/10/30 09:43:54,30,0.5,72.0,95.75,83.875,4.4399999999999995,0.6785714285714286,0.5933190032337834
sal0209,蜜蜜基地 寵物美容 板橋店,OPERATIONAL,NTP001,NTP,4,22054臺灣新北市板橋區中正路250巷8號1樓,0908267776,48.0,4.9,77.0,2021-04-01,121.4559672,25.0192173,https://maps.google.com/?cid=6338097955458381046,https://www.facebook.com/pages/category/Pet-Service/%E8%9C%9C%E8%9C%9C%E5%9F%BA%E5%9C%B0%E5%AF%B5%E7%89%A9%E6%BE%A1%E5%A0%82-739342019814253/,ChIJ32mgLlCpQjQR9vS5goJy9Vc,2025/10/30 09:43:54,49,0.620253164556962,121.0,95.75,111.41139240506328,4.883673469387755,0.6428571428571428,0.6287587455477145
sal0210,搖搖尾巴寵物坊,OPERATIONAL,NTP001,NTP,4,220臺灣新北市板橋區文化路一段46巷8號,0222710050,54.0,4.9,144.0,2022-03-09,121.4599153,25.0116372,https://maps.google.com/?cid=12410372690303844126,,ChIJg_R4-ByoQjQRHv_EdzWAOqw,2025/10/30 09:43:54,49,0.620253164556962,121.0,95.75,111.41139240506328,4.883673469387755,0.6607142857142857,0.6465589191479555
sal0211,喜香香貓狗澡堂,OPERATIONAL,NTP001,NTP,4,220臺灣新北市板橋區大觀路二段37巷50號,,35.0,4.9,79.0,2021-08-11,121.4491452,25.0024837,https://maps.google.com/?cid=16375677207396556095,,ChIJQfsAr60CaDQRPx1Vd6gXQuM,2025/10/30 09:43:54,49,0.620253164556962,121.0,95.75,111.41139240506328,4.883673469387755,0.6041666666666666,0.5909290369463391
sal0212,PetPark,OPERATIONAL,NTP001,NTP,4,22060臺灣新北市板橋區南雅南路一段40號近南雅夜市口旁,0229688882,84.0,4.7,496.0,2024-06-14,121.4557845,25.0061435,https://maps.google.com/?cid=16934569203122731547,http://www.wonderpet.asia/,ChIJW7N_kqgCaDQRG3pmkPesA-s,2025/10/30 09:43:54,49,0.620253164556962,121.0,95.75,111.41139240506328,4.883673469387755,0.75,0.7100534079278626
sal0213,戀戀狗窩（寵物美容）,OPERATIONAL,NTP001,NTP,4,220臺灣板橋區中正路1巷16弄23號,0229692363,45.0,5.0,30.0,2025-03-15,121.4549313,25.0120151,https://maps.google.com/?cid=7658792517365600533,,ChIJK7i-5AKoQjQRFRH_bTd_SWo,2025/10/30 09:43:54,49,0.620253164556962,121.0,95.75,111.41139240506328,4.883673469387755,0.6339285714285714,0.6223088878744316
sal0214,板橋喵屋-喵星人協會（人類來訪全預約制）請聯繫粉絲頁訊息聯繫或官方賴預約,OPERATIONAL,NTP001,NTP,4,220臺灣新北市板橋區僑中一街136號1樓,0222756500,168.0,4.9,1513.0,2025-04-26,121.4454262,25.0119191,https://maps.google.com/?cid=2747637114465772931,https://www.facebook.com/NTPCCAT2021,ChIJE1vonEmpQjQRg2Vp42WRISY,2025/10/30 09:43:54,49,0.620253164556962,121.0,95.75,111.41139240506328,4.883673469387755,1.0,0.9797760466939399
sal0215,PetPark,OPERATIONAL,NTP001,NTP,4,220臺灣新北市板橋區英士路74號,0222502233,70.0,4.8,351.0,2024-04-05,121.4602806,25.0245241,https://maps.google.com/?cid=4675716877138710892,https://www.wonderpet.asia/,ChIJ34m61hOoQjQRbNEmDLp740A,2025/10/30 09:43:54,49,0.620253164556962,121.0,95.75,111.41139240506328,4.883673469387755,0.7083333333333334,0.682855988989538
sal0216,六月沐寵物沙龍/寵物美容（LINE預約制）,OPERATIONAL,NTP001,NTP,4,220臺灣新北市板橋區漢生西路165巷46號1樓,,48.0,5.0,11.0,2025-10-24,121.4618893,25.0236393,https://maps.google.com/?cid=8586039300685127377,https://lin.ee/DYciI1q,ChIJScOtboOpQjQR0V7h0EC9J3c,2025/10/30 09:43:54,49,0.620253164556962,121.0,95.75,111.41139240506328,4.883673469387755,0.6428571428571428,0.6292448586161846
sal0217,B1寵殿,OPERATIONAL,NTP001,NTP,4,"號 B1 No. 124, 館前西路板橋區新北市臺灣 220",0229608080,54.0,4.7,73.0,2023-01-29,121.4566355,25.007845,https://maps.google.com/?cid=15345903956240541744,https://www.facebook.com/b129608080,ChIJIRCHc6gCaDQRMKj6lFea99Q,2025/10/30 09:43:54,49,0.620253164556962,121.0,95.75,111.41139240506328,4.883673469387755,0.6607142857142857,0.6357347372536157
sal0218,艾莉塔寵物館,OPERATIONAL,NTP001,NTP,4,220臺灣新北市板橋區南雅西路二段82號,0222752330,60.0,5.0,23.0,2022-11-06,121.4526001,25.0109125,https://maps.google.com/?cid=2702572381307395989,,ChIJ5y7HTgOpQjQRld-bD0N3gSU,2025/10/30 09:43:54,49,0.620253164556962,121.0,95.75,111.41139240506328,4.883673469387755,0.6785714285714286,0.6654857013537763
sal0219,東森寵物 板橋雨農店,OPERATIONAL,NTP001,NTP,4,220033臺灣新北市板橋區雨農路54號1樓,0222500070,84.0,4.7,71.0,2025-08-19,121.4608797,25.0242664,https://maps.google.com/?cid=17612772121727503358,https://www.etipets.com/,ChIJySrF17GpQjQR_ot4oe0ibfQ,2025/10/30 09:43:54,49,0.620253164556962,121.0,95.75,111.41139240506328,4.883673469387755,0.75,0.7218273346603137
sal0220,DOMO PET HOUSE,OPERATIONAL,NTP001,NTP,4,220臺灣新北市板橋區永豐街51號,0289538181,53.0,4.9,211.0,2025-09-26,121.4740486,25.0178403,https://maps.google.com/?cid=15331532467253792051,,ChIJP_n1IqepQjQRM80HjYyLxNQ,2025/10/30 09:43:54,49,0.620253164556962,121.0,95.75,111.41139240506328,4.883673469387755,0.6577380952380952,0.6438411757631006
sal0221,森然貓咪到府美容,OPERATIONAL,NTP003,NTP,4,235臺灣新北市中和區中山路三段32巷2弄15號,,76.5,5.0,15.0,2024-09-27,121.4794626,25.0066595,https://maps.google.com/?cid=8666897620242007271,https://www.youtube.com/channel/UCugxBa24a4CF1mgsBf3K-GA,ChIJRbzYRieoQjQR5wQ0Z3cBR3g,2025/10/30 09:43:54,46,0.6052631578947368,89.75,95.75,92.11842105263158,4.717391304347826,0.7276785714285714,0.6923083787797523
sal0222,沐比精緻寵物沙龍,OPERATIONAL,NTP001,NTP,4,220臺灣新北市板橋區大同街8巷4號1樓,0930954921,59.5,5.0,26.0,2025-09-30,121.4770511,25.0265799,https://maps.google.com/?cid=15204151499620961327,https://www.instagram.com/mubepetsalon,ChIJAQY0kF-pQjQRL0wh3jv__9I,2025/10/30 09:43:54,49,0.620253164556962,121.0,95.75,111.41139240506328,4.883673469387755,0.6770833333333334,0.6643113672510597
sal0223,PIG HOUSE豬窩寵物中和店-貓狗寵物美容 貓狗住宿,OPERATIONAL,NTP003,NTP,4,235臺灣新北市中和區民德路60號1樓,0229582227,63.0,4.7,284.0,2025-05-24,121.46869,25.002051,https://maps.google.com/?cid=11419085439280238139,https://www.pighousedogcat.com.tw/,ChIJe0RkqZoDaDQRO04ixLS9eJ4,2025/10/30 09:43:54,46,0.6052631578947368,89.75,95.75,92.11842105263158,4.717391304347826,0.6875,0.6468356750652136
sal0224,寶貝多寵物美容,OPERATIONAL,NTP001,NTP,4,220臺灣新北市板橋區文化路一段285巷10號1樓,0222543837,59.5,5.0,49.0,2022-11-21,121.4642287,25.0192139,https://maps.google.com/?cid=16977233203982334878,,ChIJ2fAKyxCoQjQRnntVWKY_m-s,2025/10/30 09:43:54,49,0.620253164556962,121.0,95.75,111.41139240506328,4.883673469387755,0.6770833333333334,0.6661426288309761
sal0225,梁憶萍國際寵物美容研習中心,OPERATIONAL,NTP001,NTP,4,220臺灣新北市板橋區長安街331巷36號,0938215000,56.0,4.6,44.0,2023-05-03,121.4737672,25.0128304,https://maps.google.com/?cid=17046243888168166433,http://www.yunagrooming.com/,ChIJd11YgSOoQjQRIeTvXIBskOw,2025/10/30 09:43:54,49,0.620253164556962,121.0,95.75,111.41139240506328,4.883673469387755,0.6666666666666666,0.6404479960992746
sal0226,潔米寵物美容,OPERATIONAL,NTP003,NTP,4,235臺灣新北市中和區中原六街48號1樓,0968874917,51.0,4.8,27.0,2022-08-30,121.4861812,25.0129093,https://maps.google.com/?cid=1585012234243655853,https://www.facebook.com/JEMIPETSALON,ChIJFVmFwQSpQjQRrci9sjoY_xU,2025/10/30 09:43:54,46,0.6052631578947368,89.75,95.75,92.11842105263158,4.717391304347826,0.6517857142857143,0.6173865265829316
sal0227,可可豆寵物美容 2cocobean,OPERATIONAL,NTP001,NTP,4,220臺灣新北市板橋區懷仁街23號1樓,0289538858,48.0,5.0,90.0,2025-10-24,121.4764838,25.019835,https://maps.google.com/?cid=11600967538788559677,http://www.2cocobean.com/,ChIJcZiPaDWpQjQRPWtUEIPq_qA,2025/10/30 09:43:54,49,0.620253164556962,121.0,95.75,111.41139240506328,4.883673469387755,0.6428571428571428,0.6345840325437101
sal0228,毛澡盆寵物生活館_寵物洗澡、寵物美容、安親住宿,OPERATIONAL,NTP003,NTP,4,235臺灣新北市中和區市民街2號,0900607950,60.0,5.0,6.0,2025-08-30,121.4684763,25.0015254,https://maps.google.com/?cid=16163590563767122274,https://www.instagram.com/_pawhouse_,ChIJyU2aNgADaDQRYvkxuPqbUOA,2025/10/30 09:43:54,46,0.6052631578947368,89.75,95.75,92.11842105263158,4.717391304347826,0.6785714285714286,0.6425627635711828
sal0229,香菜妞寵物美容,OPERATIONAL,NTP001,NTP,4,220臺灣新北市板橋區懷仁街89號,0985269145,60.0,5.0,40.0,2023-05-20,121.4775266,25.018245,https://maps.google.com/?cid=14292991779978624328,https://www.facebook.com/profile.php?id=100090211192810&mibextid=ZbWKwL,ChIJ4-cZWvypQjQRSD0030voWsY,2025/10/30 09:43:54,49,0.620253164556962,121.0,95.75,111.41139240506328,4.883673469387755,0.6785714285714286,0.6669549260875728
sal0230,PIG HOUSE豬窩貓狗美容旅館-板橋店,OPERATIONAL,NTP001,NTP,4,220臺灣新北市板橋區民生路三段108號,0222580761,63.0,4.7,235.0,2025-03-31,121.4667793,25.026422,https://maps.google.com/?cid=10141827178659898976,https://www.pighousedogcat.com.tw/,ChIJAV4iwcqpQjQRYOZs1RUCv4w,2025/10/30 09:43:54,49,0.620253164556962,121.0,95.75,111.41139240506328,4.883673469387755,0.6875,0.6543724409629381
sal0231,喜多寵物美容住宿旅館-推薦寵物美容SPA(新北板橋)貓狗皮毛護理 優質安親住宿 飼養諮詢 寵物保健食品推薦 精緻修剪 採用歐盟認證全系列意大利洗護毛精 美國促進毛髮生長液專業產品,OPERATIONAL,NTP001,NTP,4,220臺灣新北市板橋區板新路133號,0229626885,66.0,4.9,108.0,2022-08-12,121.4705746,25.0153475,https://maps.google.com/?cid=4520735388577675865,,ChIJe1bS3SKoQjQRWbq1T-LgvD4,2025/10/30 09:43:54,49,0.620253164556962,121.0,95.75,111.41139240506328,4.883673469387755,0.6964285714285714,0.681345295359489
sal0232,富寶寵物澡堂,OPERATIONAL,NTP001,NTP,4,220臺灣新北市板橋區國光路160號,0229667000,78.0,4.3,51.0,2024-09-27,121.4600704,25.0180847,https://maps.google.com/?cid=5149005418311605706,,ChIJiSdE2xqoQjQRyl0GuSXxdEc,2025/10/30 09:43:54,49,0.620253164556962,121.0,95.75,111.41139240506328,4.883673469387755,0.7321428571428572,0.688271371696201
sal0233,Enjoy Mu Pet Beauty Hotel PET SPA HOTEL,OPERATIONAL,NTP001,NTP,4,220臺灣新北市板橋區光武街40號,0222588338,54.0,4.8,85.0,2023-05-27,121.4673835,25.02619,https://maps.google.com/?cid=13304712535807601130,https://www.enjoybath.com.tw//,ChIJT0288e6pQjQR6ql_V4_Vo7g,2025/10/30 09:43:54,49,0.620253164556962,121.0,95.75,111.41139240506328,4.883673469387755,0.6607142857142857,0.6405575460017686
sal0234,小毛球寵物美容工作室,OPERATIONAL,NTP003,NTP,4,235臺灣新北市中和區新生街16巷3號,0928344911,48.0,5.0,11.0,2023-05-27,121.4830368,25.0042298,https://maps.google.com/?cid=14616137639182274232,https://www.facebook.com/profile.php?id=100091707828937&mibextid=ZbWKwL,ChIJMVyMI7SpQjQRuA6tQ77z1so,2025/10/30 09:43:54,46,0.6052631578947368,89.75,95.75,92.11842105263158,4.717391304347826,0.6428571428571428,0.6103977628021877
sal0235,黃金微笑,OPERATIONAL,NTP003,NTP,4,235臺灣新北市中和區中原街138號,0222257778,41.5,4.7,27.0,2022-08-06,121.4851132,25.011591,https://maps.google.com/?cid=16373024439322802171,,ChIJL50SEG-pQjQR-_efxPqqOOM,2025/10/30 09:43:54,46,0.6052631578947368,89.75,95.75,92.11842105263158,4.717391304347826,0.6235119047619048,0.5877783503300897
sal0236,三毛寵物旅館/三毛寵物美容/貓咪住宿/狗狗美容/狗狗洗澡,OPERATIONAL,NTP004,NTP,4,234臺灣新北市永和區中和路421巷3弄1號1樓,0229258933,84.0,4.7,376.0,2024-03-10,121.5089571,25.0008294,https://maps.google.com/?cid=8163820004136362034,https://somemore-pet.com.tw/,ChIJ6USCguCpQjQRMqDGPAq3S3E,2025/10/30 09:43:54,27,0.47368421052631576,99.5,95.75,97.5263157894737,4.78888888888889,0.75,0.707746100552036
sal0237,天天寵寵物店/永和寵物美容/寵物自助洗/寵物用品/飼料捐贈/可陪同洗澡/全程一對一,OPERATIONAL,NTP004,NTP,4,234臺灣新北市永和區安樂路248-2號,0229254813,66.0,4.9,54.0,2025-05-23,121.5147621,25.003399,https://maps.google.com/?cid=2274369128169255003,https://lovepet248.com/,ChIJJzT6JwCpQjQRW7CkBKwukB8,2025/10/30 09:43:54,27,0.47368421052631576,99.5,95.75,97.5263157894737,4.78888888888889,0.6964285714285714,0.6725391174184159
sal0238,巷子內A&S Pet Grooming,OPERATIONAL,NTP004,NTP,4,234臺灣新北市永和區永和路一段49巷10號,0229229587,0.0,4.9,61.0,2025-03-06,121.5122201,25.0071017,https://maps.google.com/?cid=16978681381016585709,https://www.facebook.com/pages/%E5%B7%B7%E5%AD%90%E5%85%A7-AS-Dog-Massage/1477880229192966?sk=timeline,ChIJtw4qzMKpQjQR7UUIVsJkoOs,2025/10/30 09:43:54,27,0.47368421052631576,99.5,95.75,97.5263157894737,4.78888888888889,0.5,0.4831643795189613
sal0239,寵物盒子,OPERATIONAL,NTP004,NTP,4,234臺灣新北市永和區保安路242號,0987348033,80.5,4.9,308.0,2025-05-29,121.5067964,25.013226,https://maps.google.com/?cid=7129118024037505964,https://www.facebook.com/petboxbox,ChIJTT2FEhGpQjQRrBuXOBK372I,2025/10/30 09:43:54,27,0.47368421052631576,99.5,95.75,97.5263157894737,4.78888888888889,0.7395833333333334,0.7208391166149928
sal0240,愷渥k•w寵物美容,OPERATIONAL,NTP004,NTP,4,234臺灣新北市永和區秀朗路二段68號,0963071216,54.0,4.9,85.0,2022-10-13,121.5227445,25.0015535,https://maps.google.com/?cid=3609660612084835514,,ChIJIz2fArqpQjQRuiQJrzMXGDI,2025/10/30 09:43:54,27,0.47368421052631576,99.5,95.75,97.5263157894737,4.78888888888889,0.6607142857142857,0.6396549175225646
sal0241,寵蝦咪寵物美容Chongshopme-永和店,OPERATIONAL,NTP004,NTP,4,234臺灣新北市永和區福和路330號,0232339698,63.0,4.9,302.0,2024-08-05,121.5154195,25.0072716,https://maps.google.com/?cid=8736294474070638059,https://www.facebook.com/profile.php?id=100064128370132,ChIJc3Ji0qOpQjQR6z0wjImNPXk,2025/10/30 09:43:54,27,0.47368421052631576,99.5,95.75,97.5263157894737,4.78888888888889,0.6875,0.6700206201788668
sal0242,好窩寵物旅館沙龍,OPERATIONAL,NTP004,NTP,4,234臺灣新北市永和區中正路512號,0229240203,84.0,4.6,105.0,2025-10-24,121.5173621,25.0049066,https://maps.google.com/?cid=9578836376481824320,https://www.facebook.com/goodstaypethotel/photos/?tab=album&album_id=1155239977830571,ChIJ24n5M-apQjQRQP7J_e7c7oQ,2025/10/30 09:43:54,27,0.47368421052631576,99.5,95.75,97.5263157894737,4.78888888888889,0.75,0.7036438842688844
sal0243,阿呆in店,OPERATIONAL,NTP003,NTP,4,235臺灣新北市中和區民生街58號,0229592608,50.0,4.6,38.0,2021-12-05,121.4691848,25.0050742,https://maps.google.com/?cid=14243837172335836898,,ChIJx2GcECCoQjQR4v6U73BGrMU,2025/10/30 09:43:54,46,0.6052631578947368,89.75,95.75,92.11842105263158,4.717391304347826,0.6488095238095238,0.6076890340962741
sal0244,洗狗仔寵物美容,OPERATIONAL,NTP004,NTP,4,234臺灣新北市永和區永利路32號,0955491053,40.0,5.0,64.0,2025-05-31,121.5183682,25.0056156,https://maps.google.com/?cid=9485880914665549723,,ChIJMSrZR4GpQjQRmy9M_G6epIM,2025/10/30 09:43:54,27,0.47368421052631576,99.5,95.75,97.5263157894737,4.78888888888889,0.6190476190476191,0.6032662863487237
sal0245,哈妹寵物美容工作室,OPERATIONAL,NTP004,NTP,4,234臺灣新北市永和區永貞路51號,0968650785,54.0,5.0,82.0,2025-05-20,121.5193676,25.0043418,https://maps.google.com/?cid=5528564861939404613,https://www.facebook.com/profile.php?id=100082829097504&mibextid=ZbWKwL,ChIJo2z15TCpQjQRRc-aSXNouUw,2025/10/30 09:43:54,27,0.47368421052631576,99.5,95.75,97.5263157894737,4.78888888888889,0.6607142857142857,0.6455595459135477
sal0246,Q&Do寵物SPA沙龍,OPERATIONAL,NTP003,NTP,4,235臺灣新北市中和區景平路597號,0936061636,63.0,4.9,75.0,2025-08-09,121.4972163,25.0006148,https://maps.google.com/?cid=16648196155446679315,,ChIJuTcMGZSpQjQRE1dsjDJGCuc,2025/10/30 09:43:54,46,0.6052631578947368,89.75,95.75,92.11842105263158,4.717391304347826,0.6875,0.6599096741783428
sal0247,達樂寵物精品,OPERATIONAL,NTP004,NTP,4,234臺灣新北市永和區仁愛路70號,0286601695,45.0,4.5,77.0,2025-03-05,121.5130486,25.0134253,https://maps.google.com/?cid=8165756885170097957,https://www.facebook.com/Dollar.no70,ChIJqf93wcGpQjQRJY_Dfp-YUnE,2025/10/30 09:43:54,27,0.47368421052631576,99.5,95.75,97.5263157894737,4.78888888888889,0.6339285714285714,0.5910030850900876
sal0248,嚕毛寵物美容,OPERATIONAL,NTP003,NTP,4,235臺灣新北市中和區福祥路56號 號,0222431913,60.0,4.4,65.0,2025-03-17,121.4994359,25.0046205,https://maps.google.com/?cid=8784877519412255235,,ChIJqWll09apQjQRA9rhQ48n6nk,2025/10/30 09:43:54,46,0.6052631578947368,89.75,95.75,92.11842105263158,4.717391304347826,0.6785714285714286,0.6223974265813127
sal0249,雅典娜寵物沙龍,OPERATIONAL,NTP004,NTP,4,234臺灣新北市永和區國光路37號1樓,0979507187,42.5,4.8,131.0,2020-10-17,121.5192582,25.0082863,https://maps.google.com/?cid=12687250791166437156,,ChIJAaUsVMupQjQRJOfE518rErA,2025/10/30 09:43:54,27,0.47368421052631576,99.5,95.75,97.5263157894737,4.78888888888889,0.6264880952380952,0.6008344353722348
sal0250,一級棒專業寵物美容,OPERATIONAL,NTP004,NTP,4,234臺灣新北市永和區中山路一段77號,0229231711,60.0,4.1,70.0,2024-05-02,121.5124626,25.0105691,https://maps.google.com/?cid=2315314192219915960,,ChIJL-IoR8KpQjQRuEawov2lISA,2025/10/30 09:43:54,27,0.47368421052631576,99.5,95.75,97.5263157894737,4.78888888888889,0.6785714285714286,0.6108554623022108
sal0251,毛孩湯屋,OPERATIONAL,NTP003,NTP,4,235臺灣新北市中和區中和路67號入口處於後方新福和街上,0966523967,48.0,5.0,30.0,2025-03-02,121.5006145,25.0011544,https://maps.google.com/?cid=7369902813086194705,,ChIJISyNptepQjQREZwno48nR2Y,2025/10/30 09:43:54,46,0.6052631578947368,89.75,95.75,92.11842105263158,4.717391304347826,0.6428571428571428,0.6154480100599568
sal0252,洗澎鵬寵物造型工作室,OPERATIONAL,NTP001,NTP,4,220臺灣新北市板橋區文化路一段285巷38號,,51.0,4.9,47.0,2023-02-09,121.4635085,25.0196565,https://maps.google.com/?cid=1530338836625759076,https://lin.ee/qpYQjXF,ChIJsXP0uoCpQjQRZBsQVxDbPBU,2025/10/30 09:43:54,49,0.620253164556962,121.0,95.75,111.41139240506328,4.883673469387755,0.6517857142857143,0.6372531718891219
sal0253,JUJUNA豬豬ㄋㄚ寵物美容-犬貓精緻手剪預約|皮毛養護SPA| AFLOAT日本洗護|新北永和區|捷運頂溪站,OPERATIONAL,NTP004,NTP,4,234臺灣新北市永和區勵行街87-1號,0900628415,45.0,4.9,97.0,2025-02-23,121.5173702,25.0128966,https://maps.google.com/?cid=3614275702594658912,https://m.facebook.com/jujuna0330,ChIJwfSScA-pQjQRYOJ6LZp8KDI,2025/10/30 09:43:54,27,0.47368421052631576,99.5,95.75,97.5263157894737,4.78888888888889,0.6339285714285714,0.6141872917096133
sal0254,遇見佩特-永和寵物美容,OPERATIONAL,NTP004,NTP,4,234臺灣新北市永和區永利路154號,0232330005,54.0,4.7,102.0,2021-02-09,121.522453,25.0026099,https://maps.google.com/?cid=12792696909729537864,https://www.facebook.com/%E9%81%87%E8%A6%8B%E4%BD%A9%E7%89%B9-174521170033121/,ChIJcV8zHq-pQjQRSJ-qjw_KiLE,2025/10/30 09:43:54,27,0.47368421052631576,99.5,95.75,97.5263157894737,4.78888888888889,0.6607142857142857,0.6268127624741975
sal0255,發Q寵物美容,OPERATIONAL,NTP004,NTP,4,234臺灣新北市永和區保安路238號,0928352802,53.0,5.0,18.0,2025-03-14,121.5068528,25.0132883,https://maps.google.com/?cid=213595137625855020,https://www.facebook.com/profile.php?id=61573742318194,ChIJTwPVsECpQjQRLJTwX6XX9gI,2025/10/30 09:43:54,27,0.47368421052631576,99.5,95.75,97.5263157894737,4.78888888888889,0.6577380952380952,0.6342939189596366
sal0256,GOPARK公園系寵物沙龍/181號,OPERATIONAL,NTP004,NTP,4,23445臺灣新北市永和區永貞路181號,0286602886,54.0,4.9,131.0,2023-02-22,121.5151038,25.0037064,https://maps.google.com/?cid=12901630333219612672,http://bit.ly/2Un5oT1,ChIJ88ZEnOepQjQRAKj1qm7MC7M,2025/10/30 09:43:54,27,0.47368421052631576,99.5,95.75,97.5263157894737,4.78888888888889,0.6607142857142857,0.6412340520424353
sal0257,Mei House Pet Grooming,OPERATIONAL,NTP004,NTP,4,234臺灣新北市永和區永元路103號,0926671875,63.0,5.0,82.0,2024-10-11,121.5225257,25.0023513,https://maps.google.com/?cid=7759844014793544332,https://linktr.ee/meihousepet,ChIJ_R6Y9HypQjQRjNI1ngSBsGs,2025/10/30 09:43:54,27,0.47368421052631576,99.5,95.75,97.5263157894737,4.78888888888889,0.6875,0.6717308788559888
sal0258,毛一朵寵物美容,OPERATIONAL,NTP004,NTP,4,234臺灣新北市永和區中正路470號,0222331266,45.0,4.9,75.0,2025-04-12,121.5175776,25.0032353,https://maps.google.com/?cid=7042899844991891514,https://portaly.cc/Maoyiduo,ChIJnaYZzJypQjQROjhlGRhovWE,2025/10/30 09:43:54,27,0.47368421052631576,99.5,95.75,97.5263157894737,4.78888888888889,0.6339285714285714,0.613286677900772
sal0259,熊熊腳寵物美容工作坊,OPERATIONAL,NTP006,NTP,4,231臺灣新北市新店區中興路三段200號,0289145544,48.0,4.8,39.0,2024-10-07,121.5439894,24.981956,https://maps.google.com/?cid=13999921409719900381,https://www.facebook.com/%E7%86%8A%E7%86%8A%E8%85%B3%E5%AF%B5%E7%89%A9%E7%BE%8E%E5%AE%B9%E5%B7%A5%E4%BD%9C%E5%9D%8A-993447454003315/,ChIJSQFJwPsBaDQR3Zi97Vi2ScI,2025/10/30 09:43:54,34,0.53125,102.0,95.75,99.0703125,4.5323529411764705,0.6428571428571428,0.5924512038731634
sal0260,沐喜寵物美容住宿,OPERATIONAL,NTP004,NTP,4,234臺灣新北市永和區文化路161號,0958069799,54.0,4.8,18.0,2025-10-04,121.5102493,25.0163677,https://maps.google.com/?cid=1502751438654643967,,ChIJIT3-9pGpQjQR_563tnjY2hQ,2025/10/30 09:43:54,27,0.47368421052631576,99.5,95.75,97.5263157894737,4.78888888888889,0.6607142857142857,0.6330462269949743
sal0261,寵物閣商行,OPERATIONAL,NTP006,NTP,4,231臺灣新北市新店區建國路98號,0229160416,45.0,4.8,31.0,2019-06-26,121.5401163,24.977758,https://maps.google.com/?cid=10957300993457536198,,ChIJQ_jGdPcBaDQRxjwSBDMnEJg,2025/10/30 09:43:54,34,0.53125,102.0,95.75,99.0703125,4.5323529411764705,0.6339285714285714,0.5827251425376445
sal0262,寵物公園(新店民權店) - 專業寵物用品&寵物美容,OPERATIONAL,NTP006,NTP,4,231007臺灣新北市新店區民權路2號,0229106679,77.0,5.0,663.0,2024-09-26,121.5431097,24.9829953,https://maps.google.com/?cid=9735947480668024293,https://www.wonderpet.asia/,ChIJ8yNsyRYBaDQR5a0TgaYIHYc,2025/10/30 09:43:54,34,0.53125,102.0,95.75,99.0703125,4.5323529411764705,0.7291666666666666,0.7203007529707254
sal0263,Cookie汪 寵物美容,OPERATIONAL,NTP004,NTP,4,234臺灣新北市永和區保安路254號,0958535311,30.0,4.7,29.0,2024-11-09,121.506258,25.012636,https://maps.google.com/?cid=8448441746657069552,https://lin.ee/5A6Tc74,ChIJccpzQ4upQjQR8EkTvwHlPnU,2025/10/30 09:43:54,27,0.47368421052631576,99.5,95.75,97.5263157894737,4.78888888888889,0.5892857142857143,0.5620036051026068
sal0264,亞席寵物美容精剪,OPERATIONAL,NTP004,NTP,4,234臺灣新北市永和區成功路二段89號,0229291700,40.0,4.8,16.0,2024-08-02,121.5271014,24.9991833,https://maps.google.com/?cid=3154404463943485965,,ChIJFzMIjFOpQjQRDQpCryWyxis,2025/10/30 09:43:54,27,0.47368421052631576,99.5,95.75,97.5263157894737,4.78888888888889,0.6190476190476191,0.5931039337900721
sal0265,貓寓寵物美容旅館,OPERATIONAL,NTP004,NTP,4,234臺灣新北市永和區仁愛路287號,0229296000,49.0,4.7,37.0,2024-04-09,121.5055821,25.0092808,https://maps.google.com/?cid=2241427295903928291,https://lin.ee/O933eG4,ChIJv3ibfACpQjQR4883AkAmGx8,2025/10/30 09:43:54,27,0.47368421052631576,99.5,95.75,97.5263157894737,4.78888888888889,0.6458333333333334,0.6154069582101666
sal0266,張雅如寵物美容藝術學苑,OPERATIONAL,NTP006,NTP,4,231臺灣新北市新店區中興路三段242號,0223452233,40.0,5.0,3.0,2025-02-08,121.5432666,24.9836992,https://maps.google.com/?cid=15345023511401352322,,ChIJW2YE7DgBaDQRgkwYC5V59NQ,2025/10/30 09:43:54,34,0.53125,102.0,95.75,99.0703125,4.5323529411764705,0.6190476190476191,0.5628502027676743
sal0267,PetPark,OPERATIONAL,NTP006,NTP,4,231臺灣新北市新店區中正路255號,0229116500,63.0,4.5,244.0,2020-07-16,121.5388092,24.9734974,https://maps.google.com/?cid=17422293180916285352,http://www.wonderpet.asia/,ChIJQ46C3PUBaDQRqL85PVdryPE,2025/10/30 09:43:54,34,0.53125,102.0,95.75,99.0703125,4.5323529411764705,0.6875,0.6200346264539109
sal0268,點伴寵物生活館 - 寵物美容|寵物用品,OPERATIONAL,NTP018,NTP,4,222臺灣新北市深坑區深坑街3巷8號,0226620229,54.0,5.0,92.0,2023-11-19,121.6167672,25.0022272,https://maps.google.com/?cid=17416636258833174492,https://www.facebook.com/dotpetshop/,ChIJBS9_gJirQjQR3I_wbWZStPE,2025/10/30 09:43:54,3,0.09090909090909091,58.5,95.75,92.36363636363636,4.766666666666667,0.6607142857142857,0.6452672114210576
sal0269,八八寵物美容室,OPERATIONAL,NTP018,NTP,4,"No. 64號, 文化街深坑區新北市臺灣 222",0226628648,47.0,4.9,18.0,2017-03-04,121.6186929,25.0018895,https://maps.google.com/?cid=2428790888216521447,https://www.facebook.com/%E5%85%AB%E5%85%AB%E5%AF%B5%E7%89%A9%E7%BE%8E%E5%AE%B9%E5%AE%A4-1662108564065198/,ChIJYcETVcWqQjQR5-rZzXHMtCE,2025/10/30 09:43:54,3,0.09090909090909091,58.5,95.75,92.36363636363636,4.766666666666667,0.6398809523809523,0.6128028490363745
sal0270,7隻小狗寵物精品館,OPERATIONAL,NTP018,NTP,4,222臺灣新北市深坑區北深路三段38號,0226626670,63.0,4.4,25.0,2021-07-03,121.6088949,25.0013185,https://maps.google.com/?cid=7346121554099629123,,ChIJHbADysOqQjQRQ-zyzKGq8mU,2025/10/30 09:43:54,3,0.09090909090909091,58.5,95.75,92.36363636363636,4.766666666666667,0.6875,0.6446772527756262
sal0271,喬藝寵物工作坊,OPERATIONAL,NTP005,NTP,4,242臺灣新北市新莊區銘德街12號,0229900671,45.0,4.9,11.0,2022-05-25,121.4589359,25.0438004,https://maps.google.com/?cid=13650118242232708433,https://www.facebook.com/pages/category/Community/%E5%96%AC%E8%97%9D%E5%AF%B5%E7%89%A9%E5%B7%A5%E4%BD%9C%E5%9D%8A-923432427795282/,ChIJi9hq5VWpQjQRUS1cSjj2br0,2025/10/30 09:43:54,56,0.6511627906976745,121.75,95.75,112.68023255813954,4.8,0.6339285714285714,0.6096990484248981
sal0272,東森寵物 新莊中正店,OPERATIONAL,NTP005,NTP,4,104臺灣新北市新莊區中正路102號242,0222760002,84.0,4.8,545.0,2025-05-10,121.4545436,25.0367513,https://maps.google.com/?cid=15531489279117647116,http://www.etipets.com/,ChIJJSIbB5epQjQRDF2YwjXvitc,2025/10/30 09:43:54,56,0.6511627906976745,121.75,95.75,112.68023255813954,4.8,0.75,0.72
sal0273,酷妮家寵物美容spa館,OPERATIONAL,NTP005,NTP,4,242臺灣新北市新莊區中興街26號,0222760402,54.0,5.0,191.0,2025-05-20,121.4492359,25.0364964,https://maps.google.com/?cid=13374750906703081272,,ChIJn0D6K56pQjQROO9eURapnLk,2025/10/30 09:43:54,56,0.6511627906976745,121.75,95.75,112.68023255813954,4.8,0.6607142857142857,0.6509079919372263
sal0274,毛毛澡堂｜寵物自助澡堂| 寵物專業美容｜寵物鮮食,OPERATIONAL,NTP001,NTP,4,220臺灣新北市板橋區民生路三段293號,0222553006,45.0,4.9,282.0,2022-10-27,121.4637793,25.030325,https://maps.google.com/?cid=12677661096984720961,https://www.instagram.com/maomao_house/,ChIJW8ndQB2pQjQRQTaQPJkZ8K8,2025/10/30 09:43:54,49,0.620253164556962,121.0,95.75,111.41139240506328,4.883673469387755,0.6339285714285714,0.6206637985361251
sal0275,新莊迴龍漫漫泡寵物美學/美容,OPERATIONAL,NTP005,NTP,4,242臺灣新北市新莊區新北大道七段293號1樓,0229015109,51.0,5.0,34.0,2025-01-30,121.4122982,25.0280635,https://maps.google.com/?cid=1759051818595170996,https://www.facebook.com/share/15NnBgFKRC/?mibextid=LQQJ4d,ChIJxVpyFYOnQjQRtLreJE9oaRg,2025/10/30 09:43:54,56,0.6511627906976745,121.75,95.75,112.68023255813954,4.8,0.6517857142857143,0.6317575579123798
sal0276,毛小孩寵物美容,OPERATIONAL,NTP005,NTP,4,"1樓, No. 21號中正路829巷22弄新莊區新北市臺灣 242",0229068226,60.0,4.6,36.0,2018-08-18,121.4212216,25.026845,https://maps.google.com/?cid=6916603214909952973,https://www.facebook.com/gogogodogdog/,ChIJOa7FaY2nQjQRzVMIbfq1_F8,2025/10/30 09:43:54,56,0.6511627906976745,121.75,95.75,112.68023255813954,4.8,0.6785714285714286,0.6448564613347783
sal0277,沐沐澡堂｜寵物美容。寵物手工零食,OPERATIONAL,NTP005,NTP,4,242臺灣新北市新莊區仁愛街38號,0972808754,41.0,5.0,43.0,2025-08-08,121.4445039,25.036595,https://maps.google.com/?cid=17197363581720733755,https://lin.ee/2VCRcjx,ChIJR2d5UnKnQjQROyi04Q9Pqe4,2025/10/30 09:43:54,56,0.6511627906976745,121.75,95.75,112.68023255813954,4.8,0.6220238095238095,0.6040151551526985
